time,.header.seq,.header.stamp.secs,.header.stamp.nsecs,.header.frame_id,.pose.position.x,.pose.position.y,.pose.position.z,.pose.orientation.x,.pose.orientation.y,.pose.orientation.z,.pose.orientation.w,.velocity.linear.x,.velocity.linear.y,.velocity.linear.z,.velocity.angular.x,.velocity.angular.y,.velocity.angular.z,.covariance
2023/03/04/12:43:33.399779,149239,1668508049,744635870,,-162.76293801963675,7.196345270968319,0.0,0.0,0.0,0.677438922992402,0.7355790274436148,0.0006026391608971954,0.007310773735230367,0.0,0.0,0.0,-0.0001596034353718447,"(0.0, 0.0, 0.0, 0.0, 0.0, 0.0, 0.0, 0.0, 0.0, 0.0, 0.0, 0.0, 0.0, 0.0, 0.0)"
2023/03/04/12:43:33.437684,149240,1668508049,754620931,,-162.76293065137136,7.1964269318815,0.0,0.0,0.0,0.6774382590402531,0.735579638916488,0.0006218052968827677,0.007543116841772698,0.0,0.0,0.0,-0.00016500435169500649,"(0.0, 0.0, 0.0, 0.0, 0.0, 0.0, 0.0, 0.0, 0.0, 0.0, 0.0, 0.0, 0.0, 0.0, 0.0)"
2023/03/04/12:43:33.437753,149241,1668508049,764806636,,-162.76283285608434,7.196417852511287,0.0,0.0,0.0,0.677425424658114,0.7355914586418021,0.0006414708793933009,0.007778364804102628,0.0,0.0,0.0,-0.0001704159382854789,"(0.0, 0.0, 0.0, 0.0, 0.0, 0.0, 0.0, 0.0, 0.0, 0.0, 0.0, 0.0, 0.0, 0.0, 0.0)"
2023/03/04/12:43:33.437788,149242,1668508049,774648752,,-162.76282443041035,7.196511246008092,0.0,0.0,0.0,0.6774247194475268,0.7355921080880624,0.0006613388654685208,0.008019092850728434,0.0,0.0,0.0,-0.0001759611900779134,"(0.0, 0.0, 0.0, 0.0, 0.0, 0.0, 0.0, 0.0, 0.0, 0.0, 0.0, 0.0, 0.0, 0.0, 0.0)"
2023/03/04/12:43:33.437841,149243,1668508049,784623539,,-162.7627456530024,7.196513999973469,0.0,0.0,0.0,0.6774056069409911,0.7356097088027778,0.0006824203826200654,0.008269471672592447,0.0,0.0,0.0,-0.0001817362514544542,"(0.0, 0.0, 0.0, 0.0, 0.0, 0.0, 0.0, 0.0, 0.0, 0.0, 0.0, 0.0, 0.0, 0.0, 0.0)"
2023/03/04/12:43:33.437880,149244,1668508049,794620655,,-162.76273947849072,7.196587519846927,0.0,0.0,0.0,0.6774048728038056,0.7356103848516958,0.0007014794963268818,0.008500220264288103,0.0,0.0,0.0,-0.00018681206344435062,"(0.0, 0.0, 0.0, 0.0, 0.0, 0.0, 0.0, 0.0, 0.0, 0.0, 0.0, 0.0, 0.0, 0.0, 0.0)"
2023/03/04/12:43:33.437936,149245,1668508049,804625294,,-162.7626758426516,7.196597554903216,0.0,0.0,0.0,0.6773807763135672,0.7356325739666706,0.0007278693776972141,0.008812957299356699,0.0,0.0,0.0,-0.00019392768352812444,"(0.0, 0.0, 0.0, 0.0, 0.0, 0.0, 0.0, 0.0, 0.0, 0.0, 0.0, 0.0, 0.0, 0.0, 0.0)"
2023/03/04/12:43:33.437974,149246,1668508049,814622999,,-162.7626661628267,7.196704197896008,0.0,0.0,0.0,0.6773799535849676,0.7356333315458369,0.000754498507771756,0.009135130599358278,0.0,0.0,0.0,-0.0002010103411220948,"(0.0, 0.0, 0.0, 0.0, 0.0, 0.0, 0.0, 0.0, 0.0, 0.0, 0.0, 0.0, 0.0, 0.0, 0.0)"
2023/03/04/12:43:33.438055,149247,1668508049,824805785,,-162.76275428528382,7.1962574958276875,0.0,0.0,0.0,0.6773232459446967,0.7356855445792991,0.0006802875001353922,0.008221166394738608,0.0,0.0,0.0,-0.00018127218316480983,"(0.0, 0.0, 0.0, 0.0, 0.0, 0.0, 0.0, 0.0, 0.0, 0.0, 0.0, 0.0, 0.0, 0.0, 0.0)"
2023/03/04/12:43:33.438385,149248,1668508049,834802974,,-162.76274612205518,7.196348865923864,0.0,0.0,0.0,0.6773224848458428,0.7356862452990767,0.0007048227485740987,0.008517456541620104,0.0,0.0,0.0,-0.00018839188199974388,"(0.0, 0.0, 0.0, 0.0, 0.0, 0.0, 0.0, 0.0, 0.0, 0.0, 0.0, 0.0, 0.0, 0.0, 0.0)"
2023/03/04/12:43:33.464926,149249,1668508049,844583363,,-162.76273951623008,7.196326293716832,0.0,0.0,0.0,0.6772809541905808,0.7357244790617589,0.0007244004481603243,0.008742035020343797,0.0,0.0,0.0,-0.0001954585190729632,"(0.0, 0.0, 0.0, 0.0, 0.0, 0.0, 0.0, 0.0, 0.0, 0.0, 0.0, 0.0, 0.0, 0.0, 0.0)"
2023/03/04/12:43:33.464975,149250,1668508049,854624183,,-162.76273092018164,7.1964232795261465,0.0,0.0,0.0,0.6772801293915804,0.7357252383405942,0.0007498415899720173,0.009048811156136581,0.0,0.0,0.0,-0.00020624148803392053,"(0.0, 0.0, 0.0, 0.0, 0.0, 0.0, 0.0, 0.0, 0.0, 0.0, 0.0, 0.0, 0.0, 0.0, 0.0)"
2023/03/04/12:43:33.468220,149251,1668508049,864824840,,-162.762686783205,7.1964272321305,0.0,0.0,0.0,0.6772499566245139,0.7357530130771427,0.000781004085516678,0.009415485218212007,0.0,0.0,0.0,-0.00022114164765574368,"(0.0, 0.0, 0.0, 0.0, 0.0, 0.0, 0.0, 0.0, 0.0, 0.0, 0.0, 0.0, 0.0, 0.0, 0.0)"
2023/03/04/12:43:33.494556,149252,1668508049,874805098,,-162.76267768358983,7.196530652222225,0.0,0.0,0.0,0.6772490021455525,0.7357538916600125,0.0008121845114902257,0.009791076092480979,0.0,0.0,0.0,-0.00023815080527263703,"(0.0, 0.0, 0.0, 0.0, 0.0, 0.0, 0.0, 0.0, 0.0, 0.0, 0.0, 0.0, 0.0, 0.0, 0.0)"
2023/03/04/12:43:33.494606,149253,1668508049,884818383,,-162.76257782879608,7.196539831438028,0.0,0.0,0.0,0.6772370445433964,0.7357648982508785,0.0008441361937260451,0.01017224778807415,0.0,0.0,0.0,-0.0002568103651823411,"(0.0, 0.0, 0.0, 0.0, 0.0, 0.0, 0.0, 0.0, 0.0, 0.0, 0.0, 0.0, 0.0, 0.0, 0.0)"
2023/03/04/12:43:33.498102,149254,1668508049,894774212,,-162.7625726501413,7.196614080473224,0.0,0.0,0.0,0.6772360006835694,0.7357658590734721,0.0008707483164899807,0.010492575444096609,0.0,0.0,0.0,-0.0002740267574154238,"(0.0, 0.0, 0.0, 0.0, 0.0, 0.0, 0.0, 0.0, 0.0, 0.0, 0.0, 0.0, 0.0, 0.0, 0.0)"
2023/03/04/12:43:33.508293,149255,1668508049,904623679,,-162.76211744928352,7.1995227293917345,0.0,0.0,0.0,0.6772332161474824,0.735768422091175,0.0015440069443569903,0.01860367844634489,0.0,0.0,0.0,-0.0004992423800656521,"(0.0, 0.0, 0.0, 0.0, 0.0, 0.0, 0.0, 0.0, 0.0, 0.0, 0.0, 0.0, 0.0, 0.0, 0.0)"
2023/03/04/12:43:33.518378,149256,1668508049,914627826,,-162.7621030804735,7.199702996319738,0.0,0.0,0.0,0.6772312221325111,0.7357702574641798,0.0015841291445230932,0.01908585420008948,0.0,0.0,0.0,-0.0005243006862061397,"(0.0, 0.0, 0.0, 0.0, 0.0, 0.0, 0.0, 0.0, 0.0, 0.0, 0.0, 0.0, 0.0, 0.0, 0.0)"
2023/03/04/12:43:33.528224,149257,1668508049,924602224,,-162.76193056077318,7.199748504180316,0.0,0.0,0.0,0.6772426594905746,0.7357597299160464,0.0016241906806278208,0.019575905441281828,0.0,0.0,0.0,-0.0005461370908737864,"(0.0, 0.0, 0.0, 0.0, 0.0, 0.0, 0.0, 0.0, 0.0, 0.0, 0.0, 0.0, 0.0, 0.0, 0.0)"
2023/03/04/12:43:33.538237,149258,1668508049,934760825,,-162.76191548948898,7.199940161801761,0.0,0.0,0.0,0.6772404920680258,0.7357617249513991,0.0016657062964575244,0.020074845941232797,0.0,0.0,0.0,-0.0005659764231481352,"(0.0, 0.0, 0.0, 0.0, 0.0, 0.0, 0.0, 0.0, 0.0, 0.0, 0.0, 0.0, 0.0, 0.0, 0.0)"
2023/03/04/12:43:33.554263,149259,1668508049,944631341,,-162.76166157572058,7.20005162587618,0.0,0.0,0.0,0.6772557271339469,0.7357477013652635,0.0016914884731175702,0.020395818700747293,0.0,0.0,0.0,-0.0005780027439785788,"(0.0, 0.0, 0.0, 0.0, 0.0, 0.0, 0.0, 0.0, 0.0, 0.0, 0.0, 0.0, 0.0, 0.0, 0.0)"
2023/03/04/12:43:33.558110,149260,1668508049,954519479,,-162.7616463625127,7.200249562567439,0.0,0.0,0.0,0.6772534308441608,0.7357498150932921,0.0017357033298196862,0.020927371584601624,0.0,0.0,0.0,-0.0005941861739458885,"(0.0, 0.0, 0.0, 0.0, 0.0, 0.0, 0.0, 0.0, 0.0, 0.0, 0.0, 0.0, 0.0, 0.0, 0.0)"
2023/03/04/12:43:33.568573,149261,1668508049,964815493,,-162.76139876528904,7.200437182334098,0.0,0.0,0.0,0.6772646800626954,0.7357394600941116,0.0017803253163793486,0.021473350293908244,0.0,0.0,0.0,-0.0006098510674714578,"(0.0, 0.0, 0.0, 0.0, 0.0, 0.0, 0.0, 0.0, 0.0, 0.0, 0.0, 0.0, 0.0, 0.0, 0.0)"
2023/03/04/12:43:33.584354,149262,1668508049,974808832,,-162.76138219190423,7.200648642406388,0.0,0.0,0.0,0.6772622536148294,0.7357416936864205,0.0018270614202116635,0.0220352915621086,0.0,0.0,0.0,-0.0006258392988928116,"(0.0, 0.0, 0.0, 0.0, 0.0, 0.0, 0.0, 0.0, 0.0, 0.0, 0.0, 0.0, 0.0, 0.0, 0.0)"
2023/03/04/12:43:33.588481,149263,1668508049,984805481,,-162.76042697626448,7.207470220761703,0.0,0.0,0.0,0.6772603274288037,0.7357434667674797,0.0033313566082709563,0.0401753034423622,0.0,0.0,0.0,-0.0011336354586389064,"(0.0, 0.0, 0.0, 0.0, 0.0, 0.0, 0.0, 0.0, 0.0, 0.0, 0.0, 0.0, 0.0, 0.0, 0.0)"
2023/03/04/12:43:33.598164,149264,1668508049,994620502,,-162.76041026936917,7.207733120191906,0.0,0.0,0.0,0.6772562379192781,0.7357472311870608,0.0033595303539337186,0.04050960334445152,0.0,0.0,0.0,-0.001142135322232054,"(0.0, 0.0, 0.0, 0.0, 0.0, 0.0, 0.0, 0.0, 0.0, 0.0, 0.0, 0.0, 0.0, 0.0, 0.0)"
2023/03/04/12:43:33.608428,149265,1668508050,4625641,,-162.76016727867537,7.208021035481999,0.0,0.0,0.0,0.6772639560377958,0.7357401265746178,0.003415449272983323,0.04119437330626144,0.0,0.0,0.0,-0.0011615865586402014,"(0.0, 0.0, 0.0, 0.0, 0.0, 0.0, 0.0, 0.0, 0.0, 0.0, 0.0, 0.0, 0.0, 0.0, 0.0)"
2023/03/04/12:43:33.618068,149266,1668508050,14512272,,-162.76013594134778,7.208421904958699,0.0,0.0,0.0,0.677259517044432,0.7357442127347946,0.0034730691692113316,0.04188320012457621,0.0,0.0,0.0,-0.0011812453568523225,"(0.0, 0.0, 0.0, 0.0, 0.0, 0.0, 0.0, 0.0, 0.0, 0.0, 0.0, 0.0, 0.0, 0.0, 0.0)"
2023/03/04/12:43:33.628366,149267,1668508050,24801236,,-162.75987029464744,7.208841637755217,0.0,0.0,0.0,0.6772752406458482,0.7357297387003657,0.0035288760800726406,0.04257829688832399,0.0,0.0,0.0,-0.0012010883565667175,"(0.0, 0.0, 0.0, 0.0, 0.0, 0.0, 0.0, 0.0, 0.0, 0.0, 0.0, 0.0, 0.0, 0.0, 0.0)"
2023/03/04/12:43:33.638237,149268,1668508050,34626079,,-162.7598381376106,7.20925541439091,0.0,0.0,0.0,0.6772706461304114,0.7357339681502377,0.0035871434748593694,0.04327476660859878,0.0,0.0,0.0,-0.0012209863704688087,"(0.0, 0.0, 0.0, 0.0, 0.0, 0.0, 0.0, 0.0, 0.0, 0.0, 0.0, 0.0, 0.0, 0.0, 0.0)"
2023/03/04/12:43:33.683753,149269,1668508050,44518139,,-162.75957100670993,7.209526601287514,0.0,0.0,0.0,0.6772931286239106,0.7357132715391472,0.0036088058405263925,0.04356844185701443,0.0,0.0,0.0,-0.0012297148241388824,"(0.0, 0.0, 0.0, 0.0, 0.0, 0.0, 0.0, 0.0, 0.0, 0.0, 0.0, 0.0, 0.0, 0.0, 0.0)"
2023/03/04/12:43:33.683793,149270,1668508050,54620367,,-162.75953809900597,7.209949883463563,0.0,0.0,0.0,0.6772884107451016,0.7357176147615161,0.0036699471586631666,0.0442996833129694,0.0,0.0,0.0,-0.0012505983318815298,"(0.0, 0.0, 0.0, 0.0, 0.0, 0.0, 0.0, 0.0, 0.0, 0.0, 0.0, 0.0, 0.0, 0.0, 0.0)"
2023/03/04/12:43:33.683832,149271,1668508050,64832473,,-162.75823477569827,7.220182737707441,0.0,0.0,0.0,0.6772888161320543,0.7357172415693685,0.005867909676186942,0.07083208853234554,0.0,0.0,0.0,-0.0019841745621429203,"(0.0, 0.0, 0.0, 0.0, 0.0, 0.0, 0.0, 0.0, 0.0, 0.0, 0.0, 0.0, 0.0, 0.0, 0.0)"
2023/03/04/12:43:33.714833,149272,1668508050,74638114,,-162.75818212435664,7.2208674195643185,0.0,0.0,0.0,0.6772813567346153,0.7357241084942907,0.005947767390207638,0.07177836832277797,0.0,0.0,0.0,-0.002008615343357909,"(0.0, 0.0, 0.0, 0.0, 0.0, 0.0, 0.0, 0.0, 0.0, 0.0, 0.0, 0.0, 0.0, 0.0, 0.0)"
2023/03/04/12:43:33.714895,149273,1668508050,84651748,,-162.75777831261232,7.2215630560318935,0.0,0.0,0.0,0.6773136872528034,0.735694344860698,0.00601946612061351,0.07272129877549319,0.0,0.0,0.0,-0.0020356843128601834,"(0.0, 0.0, 0.0, 0.0, 0.0, 0.0, 0.0, 0.0, 0.0, 0.0, 0.0, 0.0, 0.0, 0.0, 0.0)"
2023/03/04/12:43:33.714945,149274,1668508050,94624174,,-162.75771383468287,7.222363296988274,0.0,0.0,0.0,0.6773058603227298,0.7357015506117184,0.006117733983928519,0.07388935115531739,0.0,0.0,0.0,-0.0020691319416706352,"(0.0, 0.0, 0.0, 0.0, 0.0, 0.0, 0.0, 0.0, 0.0, 0.0, 0.0, 0.0, 0.0, 0.0, 0.0)"
2023/03/04/12:43:33.715001,149275,1668508050,104654326,,-162.75733954024918,7.2231963752071096,0.0,0.0,0.0,0.6773294011286902,0.7356798776415254,0.006189942498780384,0.07481970552635657,0.0,0.0,0.0,-0.002096100352848329,"(0.0, 0.0, 0.0, 0.0, 0.0, 0.0, 0.0, 0.0, 0.0, 0.0, 0.0, 0.0, 0.0, 0.0, 0.0)"
2023/03/04/12:43:33.718365,149276,1668508050,114648523,,-162.75728232163874,7.223934134989317,0.0,0.0,0.0,0.6773215023477195,0.735687149852047,0.006269009026198947,0.0757556092171095,0.0,0.0,0.0,-0.0021232576708469664,"(0.0, 0.0, 0.0, 0.0, 0.0, 0.0, 0.0, 0.0, 0.0, 0.0, 0.0, 0.0, 0.0, 0.0, 0.0)"
2023/03/04/12:43:33.728607,149277,1668508050,124823362,,-162.75701300507265,7.224778147510352,0.0,0.0,0.0,0.677310942050796,0.7356968722091071,0.00634850583684553,0.07668947297985818,0.0,0.0,0.0,-0.0021478312503946636,"(0.0, 0.0, 0.0, 0.0, 0.0, 0.0, 0.0, 0.0, 0.0, 0.0, 0.0, 0.0, 0.0, 0.0, 0.0)"
2023/03/04/12:43:33.738087,149278,1668508050,134498770,,-162.75695385373976,7.225536917975425,0.0,0.0,0.0,0.6773028533380951,0.7357043189081295,0.006426343410558234,0.07760898864805965,0.0,0.0,0.0,-0.0021740953525278693,"(0.0, 0.0, 0.0, 0.0, 0.0, 0.0, 0.0, 0.0, 0.0, 0.0, 0.0, 0.0, 0.0, 0.0, 0.0)"
2023/03/04/12:43:33.747935,149279,1668508050,144434269,,-162.7553949035042,7.239355886491834,0.0,0.0,0.0,0.6772452926872483,0.7357573061363124,0.009389504650744781,0.11317884355821987,0.0,0.0,0.0,-0.003146955030844415,"(0.0, 0.0, 0.0, 0.0, 0.0, 0.0, 0.0, 0.0, 0.0, 0.0, 0.0, 0.0, 0.0, 0.0, 0.0)"
2023/03/04/12:43:33.763238,149280,1668508050,154522261,,-162.75530807452603,7.240474873693605,0.0,0.0,0.0,0.6772335299213085,0.735768133279992,0.009500823283134563,0.11447622753727874,0.0,0.0,0.0,-0.0031818877269061555,"(0.0, 0.0, 0.0, 0.0, 0.0, 0.0, 0.0, 0.0, 0.0, 0.0, 0.0, 0.0, 0.0, 0.0, 0.0)"
2023/03/04/12:43:33.768364,149281,1668508050,164841820,,-162.7550537412705,7.241645654392214,0.0,0.0,0.0,0.6772116100156502,0.7357883087274566,0.009616140800578172,0.11578200298142073,0.0,0.0,0.0,-0.003220404374435744,"(0.0, 0.0, 0.0, 0.0, 0.0, 0.0, 0.0, 0.0, 0.0, 0.0, 0.0, 0.0, 0.0, 0.0, 0.0)"
2023/03/04/12:43:33.796829,149282,1668508050,174808404,,-162.7549638613416,7.2427992743608876,0.0,0.0,0.0,0.677199550389083,0.7357994080949127,0.00972793548388698,0.11708152469137725,0.0,0.0,0.0,-0.0032551187060228136,"(0.0, 0.0, 0.0, 0.0, 0.0, 0.0, 0.0, 0.0, 0.0, 0.0, 0.0, 0.0, 0.0, 0.0, 0.0)"
2023/03/04/12:43:33.796876,149283,1668508050,184831084,,-162.75489483700787,7.244124185830325,0.0,0.0,0.0,0.6771156662126835,0.7358766028141904,0.009860878563812637,0.11835455253962596,0.0,0.0,0.0,-0.0032923355617078677,"(0.0, 0.0, 0.0, 0.0, 0.0, 0.0, 0.0, 0.0, 0.0, 0.0, 0.0, 0.0, 0.0, 0.0, 0.0)"
2023/03/04/12:43:33.798117,149284,1668508050,194650414,,-162.75473741464683,7.245917336843385,0.0,0.0,0.0,0.6771022234163209,0.735888971954788,0.010105643484358318,0.1212387938164541,0.0,0.0,0.0,-0.003373922956417555,"(0.0, 0.0, 0.0, 0.0, 0.0, 0.0, 0.0, 0.0, 0.0, 0.0, 0.0, 0.0, 0.0, 0.0, 0.0)"
2023/03/04/12:43:33.808251,149285,1668508050,204649360,,-162.75467758671698,7.24724705574365,0.0,0.0,0.0,0.6770144525604103,0.7359697215404504,0.01023826916091752,0.12247698956338321,0.0,0.0,0.0,-0.003410944949243866,"(0.0, 0.0, 0.0, 0.0, 0.0, 0.0, 0.0, 0.0, 0.0, 0.0, 0.0, 0.0, 0.0, 0.0, 0.0)"
2023/03/04/12:43:33.818120,149286,1668508050,214540861,,-162.7545802987757,7.248476544370789,0.0,0.0,0.0,0.6770016664156524,0.7359814832388311,0.010348179224083277,0.12374001403700022,0.0,0.0,0.0,-0.0034486200019866724,"(0.0, 0.0, 0.0, 0.0, 0.0, 0.0, 0.0, 0.0, 0.0, 0.0, 0.0, 0.0, 0.0, 0.0, 0.0)"
2023/03/04/12:43:33.828388,149287,1668508050,224824318,,-162.75294666888473,7.2640173977199005,0.0,0.0,0.0,0.6769170941240518,0.7360592691371053,0.013725209432563014,0.16366848194658146,0.0,0.0,0.0,-0.004539940532883083,"(0.0, 0.0, 0.0, 0.0, 0.0, 0.0, 0.0, 0.0, 0.0, 0.0, 0.0, 0.0, 0.0, 0.0, 0.0)"
2023/03/04/12:43:33.838055,149288,1668508050,234613302,,-162.75281894137575,7.265641716890865,0.0,0.0,0.0,0.6769001540156463,0.7360748477523155,0.013875798610038818,0.16537279899568044,0.0,0.0,0.0,-0.004589402292350275,"(0.0, 0.0, 0.0, 0.0, 0.0, 0.0, 0.0, 0.0, 0.0, 0.0, 0.0, 0.0, 0.0, 0.0, 0.0)"
2023/03/04/12:43:33.848035,149289,1668508050,244547053,,-162.7525502649173,7.268078382030524,0.0,0.0,0.0,0.676849207334401,0.736121695462641,0.01419739691398338,0.16892498348584656,0.0,0.0,0.0,-0.004691589858598276,"(0.0, 0.0, 0.0, 0.0, 0.0, 0.0, 0.0, 0.0, 0.0, 0.0, 0.0, 0.0, 0.0, 0.0, 0.0)"
2023/03/04/12:43:33.858359,149290,1668508050,254801846,,-162.75241654875163,7.269766718852961,0.0,0.0,0.0,0.6768316547676125,0.736137834311303,0.01435377657013841,0.17068810096685139,0.0,0.0,0.0,-0.00474544191294458,"(0.0, 0.0, 0.0, 0.0, 0.0, 0.0, 0.0, 0.0, 0.0, 0.0, 0.0, 0.0, 0.0, 0.0, 0.0)"
2023/03/04/12:43:33.868606,149291,1668508050,264840127,,-162.75209021621365,7.2716886806988885,0.0,0.0,0.0,0.6767967118047638,0.7361699606003084,0.014515522630293976,0.17241548705408372,0.0,0.0,0.0,-0.004798310005123701,"(0.0, 0.0, 0.0, 0.0, 0.0, 0.0, 0.0, 0.0, 0.0, 0.0, 0.0, 0.0, 0.0, 0.0, 0.0)"
2023/03/04/12:43:33.878385,149292,1668508050,274832864,,-162.7519507651484,7.273433155670469,0.0,0.0,0.0,0.6767787637566155,0.7361864607068425,0.014668209531781908,0.17412753813187914,0.0,0.0,0.0,-0.004850702726220288,"(0.0, 0.0, 0.0, 0.0, 0.0, 0.0, 0.0, 0.0, 0.0, 0.0, 0.0, 0.0, 0.0, 0.0, 0.0)"
2023/03/04/12:43:33.942015,149293,1668508050,284827457,,-162.7516159524702,7.275491078223915,0.0,0.0,0.0,0.6767463980385628,0.7362162133108936,0.014826821323631391,0.17582560500752353,0.0,0.0,0.0,-0.004902698126484743,"(0.0, 0.0, 0.0, 0.0, 0.0, 0.0, 0.0, 0.0, 0.0, 0.0, 0.0, 0.0, 0.0, 0.0, 0.0)"
2023/03/04/12:43:33.942070,149294,1668508050,294593988,,-162.75137122615936,7.278239542789657,0.0,0.0,0.0,0.6767262749709981,0.736234710376981,0.015200799393363927,0.18014285806330385,0.0,0.0,0.0,-0.005026632274257714,"(0.0, 0.0, 0.0, 0.0, 0.0, 0.0, 0.0, 0.0, 0.0, 0.0, 0.0, 0.0, 0.0, 0.0, 0.0)"
2023/03/04/12:43:33.942176,149295,1668508050,304536295,,-162.74948809590666,7.295956705449865,0.0,0.0,0.0,0.6766320119409376,0.7363213431761698,0.01907926525255654,0.22541719092233287,0.0,0.0,0.0,-0.00627678437928033,"(0.0, 0.0, 0.0, 0.0, 0.0, 0.0, 0.0, 0.0, 0.0, 0.0, 0.0, 0.0, 0.0, 0.0, 0.0)"
2023/03/04/12:43:33.942212,149296,1668508050,314539394,,-162.74930553374296,7.298225502781156,0.0,0.0,0.0,0.676608618064947,0.7363428399599216,0.019279143214864354,0.2276066075422448,0.0,0.0,0.0,-0.0063437661010344835,"(0.0, 0.0, 0.0, 0.0, 0.0, 0.0, 0.0, 0.0, 0.0, 0.0, 0.0, 0.0, 0.0, 0.0, 0.0)"
2023/03/04/12:43:33.942278,149297,1668508050,324529196,,-162.74906145545708,7.300662759678579,0.0,0.0,0.0,0.6765358688243797,0.7364096809480724,0.019507393378726447,0.22976147873889646,0.0,0.0,0.0,-0.0064112300136560845,"(0.0, 0.0, 0.0, 0.0, 0.0, 0.0, 0.0, 0.0, 0.0, 0.0, 0.0, 0.0, 0.0, 0.0, 0.0)"
2023/03/04/12:43:33.942308,149298,1668508050,334539127,,-162.74887353382118,7.302981892566003,0.0,0.0,0.0,0.6765119665803239,0.7364316391041484,0.01970362437577521,0.2318941418603253,0.0,0.0,0.0,-0.006478004366641073,"(0.0, 0.0, 0.0, 0.0, 0.0, 0.0, 0.0, 0.0, 0.0, 0.0, 0.0, 0.0, 0.0, 0.0, 0.0)"
2023/03/04/12:43:33.948000,149299,1668508050,344544461,,-162.74577641597423,7.332306574574536,0.0,0.0,0.0,0.6763998012824411,0.7365346623378116,0.0263643288399931,0.3091683633010494,0.0,0.0,0.0,-0.008618381622008602,"(0.0, 0.0, 0.0, 0.0, 0.0, 0.0, 0.0, 0.0, 0.0, 0.0, 0.0, 0.0, 0.0, 0.0, 0.0)"
2023/03/04/12:43:33.958090,149300,1668508050,354560223,,-162.74552291745516,7.335417569215116,0.0,0.0,0.0,0.676367698362312,0.7365641429041115,0.026656044756945083,0.3122677133362976,0.0,0.0,0.0,-0.008715849083849985,"(0.0, 0.0, 0.0, 0.0, 0.0, 0.0, 0.0, 0.0, 0.0, 0.0, 0.0, 0.0, 0.0, 0.0, 0.0)"
2023/03/04/12:43:33.968070,149301,1668508050,364536797,,-162.7450217905051,7.33851237284078,0.0,0.0,0.0,0.6763367615836742,0.7365925501459463,0.0269399790734568,0.31528140431924373,0.0,0.0,0.0,-0.00881217078745559,"(0.0, 0.0, 0.0, 0.0, 0.0, 0.0, 0.0, 0.0, 0.0, 0.0, 0.0, 0.0, 0.0, 0.0, 0.0)"
2023/03/04/12:43:33.978377,149302,1668508050,374857200,,-162.74476202904393,7.341682872542036,0.0,0.0,0.0,0.6763039772810213,0.7366226512359444,0.027219075368512886,0.3182137775083845,0.0,0.0,0.0,-0.008906003699227893,"(0.0, 0.0, 0.0, 0.0, 0.0, 0.0, 0.0, 0.0, 0.0, 0.0, 0.0, 0.0, 0.0, 0.0, 0.0)"
2023/03/04/12:43:34.024315,149303,1668508050,384828159,,-162.74298609433805,7.35842161957042,0.0,0.0,0.0,0.6761961904322956,0.7367215973791257,0.03082574611917912,0.35914109578503445,0.0,0.0,0.0,-0.010055436596187786,"(0.0, 0.0, 0.0, 0.0, 0.0, 0.0, 0.0, 0.0, 0.0, 0.0, 0.0, 0.0, 0.0, 0.0, 0.0)"
2023/03/04/12:43:34.024364,149304,1668508050,394653195,,-162.74134282902838,7.37476666983267,0.0,0.0,0.0,0.6761345110684305,0.7367782047144543,0.03423972345444229,0.3981338824170435,0.0,0.0,0.0,-0.011154502863751086,"(0.0, 0.0, 0.0, 0.0, 0.0, 0.0, 0.0, 0.0, 0.0, 0.0, 0.0, 0.0, 0.0, 0.0, 0.0)"
2023/03/04/12:43:34.024423,149305,1668508050,404546748,,-162.74093131078004,7.37852208177809,0.0,0.0,0.0,0.6760557241065207,0.7368504990178184,0.03463862810385056,0.401765797329224,0.0,0.0,0.0,-0.011271952097159825,"(0.0, 0.0, 0.0, 0.0, 0.0, 0.0, 0.0, 0.0, 0.0, 0.0, 0.0, 0.0, 0.0, 0.0, 0.0)"
2023/03/04/12:43:34.024469,149306,1668508050,414842186,,-162.74059645248738,7.382551452570552,0.0,0.0,0.0,0.676013869949639,0.7368888977557693,0.034993189903805136,0.40534022173765094,0.0,0.0,0.0,-0.0113872339475622,"(0.0, 0.0, 0.0, 0.0, 0.0, 0.0, 0.0, 0.0, 0.0, 0.0, 0.0, 0.0, 0.0, 0.0, 0.0)"
2023/03/04/12:43:34.028553,149307,1668508050,424814982,,-162.7403254553011,7.3865457160313905,0.0,0.0,0.0,0.6759398824179644,0.7369567662738353,0.035381075156757764,0.4088751202171318,0.0,0.0,0.0,-0.011500866206757693,"(0.0, 0.0, 0.0, 0.0, 0.0, 0.0, 0.0, 0.0, 0.0, 0.0, 0.0, 0.0, 0.0, 0.0, 0.0)"
2023/03/04/12:43:34.038151,149308,1668508050,434658566,,-162.73998207707314,7.390648637716027,0.0,0.0,0.0,0.675897165238528,0.7369959443731844,0.03573044431431217,0.41235597885479525,0.0,0.0,0.0,-0.011612292481456702,"(0.0, 0.0, 0.0, 0.0, 0.0, 0.0, 0.0, 0.0, 0.0, 0.0, 0.0, 0.0, 0.0, 0.0, 0.0)"
2023/03/04/12:43:34.048439,149309,1668508050,444808895,,-162.73889235700204,7.401807215647497,0.0,0.0,0.0,0.6758311693204171,0.7370564636274467,0.03784252359756264,0.43582341314242645,0.0,0.0,0.0,-0.012284431761232754,"(0.0, 0.0, 0.0, 0.0, 0.0, 0.0, 0.0, 0.0, 0.0, 0.0, 0.0, 0.0, 0.0, 0.0, 0.0)"
2023/03/04/12:43:34.058273,149310,1668508050,454647635,,-162.7385246939199,7.4061761201203185,0.0,0.0,0.0,0.6757855433215982,0.7370982969981225,0.038212292717418786,0.43945065563902563,0.0,0.0,0.0,-0.012399759981735911,"(0.0, 0.0, 0.0, 0.0, 0.0, 0.0, 0.0, 0.0, 0.0, 0.0, 0.0, 0.0, 0.0, 0.0, 0.0)"
2023/03/04/12:43:34.074044,149311,1668508050,464836459,,-162.7369237083591,7.421567884651374,0.0,0.0,0.0,0.6757382643578282,0.7371416404482044,0.041281991858576776,0.4740483046978429,0.0,0.0,0.0,-0.013386313119737753,"(0.0, 0.0, 0.0, 0.0, 0.0, 0.0, 0.0, 0.0, 0.0, 0.0, 0.0, 0.0, 0.0, 0.0, 0.0)"
2023/03/04/12:43:34.129609,149312,1668508050,474833947,,-162.73652252943108,7.4263076741568534,0.0,0.0,0.0,0.6756886385839639,0.7371871293562778,0.04167822531748214,0.47785390563397123,0.0,0.0,0.0,-0.013491032100957093,"(0.0, 0.0, 0.0, 0.0, 0.0, 0.0, 0.0, 0.0, 0.0, 0.0, 0.0, 0.0, 0.0, 0.0, 0.0)"
2023/03/04/12:43:34.129680,149313,1668508050,484827272,,-162.73604227440205,7.4310138285789105,0.0,0.0,0.0,0.6756710904417853,0.7372032131924066,0.04202982081952035,0.4816201701413817,0.0,0.0,0.0,-0.013606432987739656,"(0.0, 0.0, 0.0, 0.0, 0.0, 0.0, 0.0, 0.0, 0.0, 0.0, 0.0, 0.0, 0.0, 0.0, 0.0)"
2023/03/04/12:43:34.129722,149314,1668508050,494665879,,-162.73525091745665,7.439397869809897,0.0,0.0,0.0,0.6756136792963271,0.7372558282900717,0.04330476426182939,0.495338973698449,0.0,0.0,0.0,-0.01400422483723107,"(0.0, 0.0, 0.0, 0.0, 0.0, 0.0, 0.0, 0.0, 0.0, 0.0, 0.0, 0.0, 0.0, 0.0, 0.0)"
2023/03/04/12:43:34.129766,149315,1668508050,504827739,,-162.73467380293266,7.4442728355871335,0.0,0.0,0.0,0.6755991497000424,0.7372691427996833,0.04365623495247757,0.4991324977120846,0.0,0.0,0.0,-0.014105580736397077,"(0.0, 0.0, 0.0, 0.0, 0.0, 0.0, 0.0, 0.0, 0.0, 0.0, 0.0, 0.0, 0.0, 0.0, 0.0)"
2023/03/04/12:43:34.129828,149316,1668508050,514587674,,-162.73424529247038,7.449288169937235,0.0,0.0,0.0,0.6755468030652768,0.7373171074024283,0.0440542004205917,0.5028598942214783,0.0,0.0,0.0,-0.014217781585390927,"(0.0, 0.0, 0.0, 0.0, 0.0, 0.0, 0.0, 0.0, 0.0, 0.0, 0.0, 0.0, 0.0, 0.0, 0.0)"
2023/03/04/12:43:34.129915,149317,1668508050,524686422,,-162.73382078887016,7.4542728057903815,0.0,0.0,0.0,0.675480269158825,0.7373780617682638,0.044472372091250045,0.5065815777515518,0.0,0.0,0.0,-0.014331831645923445,"(0.0, 0.0, 0.0, 0.0, 0.0, 0.0, 0.0, 0.0, 0.0, 0.0, 0.0, 0.0, 0.0, 0.0, 0.0)"
2023/03/04/12:43:34.138265,149318,1668508050,534627455,,-162.7333825786159,7.459372334143373,0.0,0.0,0.0,0.675427097625638,0.7374267663931157,0.04486360941753809,0.5101935584440069,0.0,0.0,0.0,-0.0144257035924107,"(0.0, 0.0, 0.0, 0.0, 0.0, 0.0, 0.0, 0.0, 0.0, 0.0, 0.0, 0.0, 0.0, 0.0, 0.0)"
2023/03/04/12:43:34.148166,149319,1668508050,544653722,,-162.7315175047119,7.477933389665342,0.0,0.0,0.0,0.6753283726392103,0.7375171788565171,0.0486846164195871,0.5519528453204711,0.0,0.0,0.0,-0.015588439038749456,"(0.0, 0.0, 0.0, 0.0, 0.0, 0.0, 0.0, 0.0, 0.0, 0.0, 0.0, 0.0, 0.0, 0.0, 0.0)"
2023/03/04/12:43:34.158185,149320,1668508050,554652813,,-162.73103870831065,7.483471923271385,0.0,0.0,0.0,0.6752705830137411,0.7375700913921891,0.049113024222973006,0.5558146539830067,0.0,0.0,0.0,-0.015701366718730847,"(0.0, 0.0, 0.0, 0.0, 0.0, 0.0, 0.0, 0.0, 0.0, 0.0, 0.0, 0.0, 0.0, 0.0, 0.0)"
2023/03/04/12:43:34.174073,149321,1668508050,564834167,,-162.73050808993654,7.48895421176835,0.0,0.0,0.0,0.6752306066465854,0.7376066891288909,0.04950923341729799,0.5596067153975314,0.0,0.0,0.0,-0.015814928000737007,"(0.0, 0.0, 0.0, 0.0, 0.0, 0.0, 0.0, 0.0, 0.0, 0.0, 0.0, 0.0, 0.0, 0.0, 0.0)"
2023/03/04/12:43:34.211672,149322,1668508050,574834489,,-162.73001963746137,7.494579378982593,0.0,0.0,0.0,0.6751719784166923,0.7376603551505866,0.049931513099098414,0.5633596097208544,0.0,0.0,0.0,-0.015908809297544055,"(0.0, 0.0, 0.0, 0.0, 0.0, 0.0, 0.0, 0.0, 0.0, 0.0, 0.0, 0.0, 0.0, 0.0, 0.0)"
2023/03/04/12:43:34.211709,149323,1668508050,584649288,,-162.72976453539707,7.500181828735612,0.0,0.0,0.0,0.6750370001012024,0.7377838765481185,0.05046987789856323,0.5670740483268101,0.0,0.0,0.0,-0.016016440930970422,"(0.0, 0.0, 0.0, 0.0, 0.0, 0.0, 0.0, 0.0, 0.0, 0.0, 0.0, 0.0, 0.0, 0.0, 0.0)"
2023/03/04/12:43:34.211765,149324,1668508050,594620813,,-162.72913942606382,7.507044680557254,0.0,0.0,0.0,0.674975406101397,0.7378402273922549,0.051179999798913224,0.5739675987668765,0.0,0.0,0.0,-0.016158794505071263,"(0.0, 0.0, 0.0, 0.0, 0.0, 0.0, 0.0, 0.0, 0.0, 0.0, 0.0, 0.0, 0.0, 0.0, 0.0)"
2023/03/04/12:43:34.211790,149325,1668508050,604653810,,-162.72890086444403,7.512752201208344,0.0,0.0,0.0,0.6748321364529783,0.7379712647592105,0.05174078233140484,0.5777206362084372,0.0,0.0,0.0,-0.016182180003498536,"(0.0, 0.0, 0.0, 0.0, 0.0, 0.0, 0.0, 0.0, 0.0, 0.0, 0.0, 0.0, 0.0, 0.0, 0.0)"
2023/03/04/12:43:34.218127,149326,1668508050,614654876,,-162.7283849973229,7.518585262109233,0.0,0.0,0.0,0.6747722232402521,0.7380260474694693,0.05216499070314797,0.581394708077782,0.0,0.0,0.0,-0.016176269449612653,"(0.0, 0.0, 0.0, 0.0, 0.0, 0.0, 0.0, 0.0, 0.0, 0.0, 0.0, 0.0, 0.0, 0.0, 0.0)"
2023/03/04/12:43:34.228348,149327,1668508050,624656691,,-162.7268585762275,7.536328313611455,0.0,0.0,0.0,0.674602306498727,0.7381813652935149,0.0557798836747688,0.6184843828734852,0.0,0.0,0.0,-0.016996445602010073,"(0.0, 0.0, 0.0, 0.0, 0.0, 0.0, 0.0, 0.0, 0.0, 0.0, 0.0, 0.0, 0.0, 0.0, 0.0)"
2023/03/04/12:43:34.238316,149328,1668508050,634811510,,-162.72630135359154,7.542552554073175,0.0,0.0,0.0,0.674539627329374,0.7382386410655766,0.05623559968586951,0.6223559617308337,0.0,0.0,0.0,-0.016877021899848,"(0.0, 0.0, 0.0, 0.0, 0.0, 0.0, 0.0, 0.0, 0.0, 0.0, 0.0, 0.0, 0.0, 0.0, 0.0)"
2023/03/04/12:43:34.248192,149329,1668508050,644660432,,-162.72578124202005,7.549617539364043,0.0,0.0,0.0,0.6744465692079423,0.7383236588946858,0.056973766170674726,0.6287566687294337,0.0,0.0,0.0,-0.016752860391936034,"(0.0, 0.0, 0.0, 0.0, 0.0, 0.0, 0.0, 0.0, 0.0, 0.0, 0.0, 0.0, 0.0, 0.0, 0.0)"
2023/03/04/12:43:34.258198,149330,1668508050,654613415,,-162.72520766562644,7.555944591540363,0.0,0.0,0.0,0.6743849807054777,0.7383799142710157,0.05741670755053066,0.6324709128232825,0.0,0.0,0.0,-0.01653496965603259,"(0.0, 0.0, 0.0, 0.0, 0.0, 0.0, 0.0, 0.0, 0.0, 0.0, 0.0, 0.0, 0.0, 0.0, 0.0)"
2023/03/04/12:43:34.289833,149331,1668508050,664834379,,-162.7247378654447,7.562165287292929,0.0,0.0,0.0,0.6742840496632865,0.7384720850307605,0.05792771269619364,0.6361683529808948,0.0,0.0,0.0,-0.016389375320013538,"(0.0, 0.0, 0.0, 0.0, 0.0, 0.0, 0.0, 0.0, 0.0, 0.0, 0.0, 0.0, 0.0, 0.0, 0.0)"
2023/03/04/12:43:34.289877,149332,1668508050,674560232,,-162.7241513038475,7.568576242060792,0.0,0.0,0.0,0.6742235840794992,0.7385272904036752,0.05836547199810581,0.6398157041202991,0.0,0.0,0.0,-0.01627123795813227,"(0.0, 0.0, 0.0, 0.0, 0.0, 0.0, 0.0, 0.0, 0.0, 0.0, 0.0, 0.0, 0.0, 0.0, 0.0)"
2023/03/04/12:43:34.316113,149333,1668508050,684543826,,-162.723823073322,7.574996777897439,0.0,0.0,0.0,0.6740749000020214,0.7386630010954013,0.05895120097222715,0.6433733121603312,0.0,0.0,0.0,-0.016279120760773577,"(0.0, 0.0, 0.0, 0.0, 0.0, 0.0, 0.0, 0.0, 0.0, 0.0, 0.0, 0.0, 0.0, 0.0, 0.0)"
2023/03/04/12:43:34.316157,149334,1668508050,694543227,,-162.72317428309347,7.581958582705409,0.0,0.0,0.0,0.6740136473024791,0.7387188932537255,0.0595042202541008,0.648225661894864,0.0,0.0,0.0,-0.01636377368555935,"(0.0, 0.0, 0.0, 0.0, 0.0, 0.0, 0.0, 0.0, 0.0, 0.0, 0.0, 0.0, 0.0, 0.0, 0.0)"
2023/03/04/12:43:34.316190,149335,1668508050,704657811,,-162.72122535422554,7.601545700425523,0.0,0.0,0.0,0.6738984974703521,0.7388239405346865,0.06343942598968783,0.688736220616304,0.0,0.0,0.0,-0.0173384720067622,"(0.0, 0.0, 0.0, 0.0, 0.0, 0.0, 0.0, 0.0, 0.0, 0.0, 0.0, 0.0, 0.0, 0.0, 0.0)"
2023/03/04/12:43:34.318295,149336,1668508050,714671713,,-162.72058894613184,7.608467586467231,0.0,0.0,0.0,0.673834181519225,0.7388825994813493,0.06391346744533477,0.6925625594177234,0.0,0.0,0.0,-0.01740788654205783,"(0.0, 0.0, 0.0, 0.0, 0.0, 0.0, 0.0, 0.0, 0.0, 0.0, 0.0, 0.0, 0.0, 0.0, 0.0)"
2023/03/04/12:43:34.328450,149337,1668508050,724795668,,-162.72010008873343,7.61531107003228,0.0,0.0,0.0,0.6737338478503162,0.7389740876788623,0.06445058047217973,0.6963161558882528,0.0,0.0,0.0,-0.017410447257146897,"(0.0, 0.0, 0.0, 0.0, 0.0, 0.0, 0.0, 0.0, 0.0, 0.0, 0.0, 0.0, 0.0, 0.0, 0.0)"
2023/03/04/12:43:34.338000,149338,1668508050,734559262,,-162.71945412776566,7.622308383723215,0.0,0.0,0.0,0.673669408429176,0.7390328329287434,0.06491333680253762,0.6999855221934305,0.0,0.0,0.0,-0.017399064997133624,"(0.0, 0.0, 0.0, 0.0, 0.0, 0.0, 0.0, 0.0, 0.0, 0.0, 0.0, 0.0, 0.0, 0.0, 0.0)"
2023/03/04/12:43:34.347986,149339,1668508050,744553114,,-162.7186996770733,7.62976012370037,0.0,0.0,0.0,0.673616807128251,0.7390807785041772,0.06546575239284355,0.7048511783760835,0.0,0.0,0.0,-0.017344898926312382,"(0.0, 0.0, 0.0, 0.0, 0.0, 0.0, 0.0, 0.0, 0.0, 0.0, 0.0, 0.0, 0.0, 0.0, 0.0)"
2023/03/04/12:43:34.358090,149340,1668508050,754626246,,-162.71804170462306,7.6368432148455465,0.0,0.0,0.0,0.6735530306061388,0.7391389009930988,0.06592029882266177,0.708417476013426,0.0,0.0,0.0,-0.017078818454881527,"(0.0, 0.0, 0.0, 0.0, 0.0, 0.0, 0.0, 0.0, 0.0, 0.0, 0.0, 0.0, 0.0, 0.0, 0.0)"
2023/03/04/12:43:34.368500,149341,1668508050,764833115,,-162.71727521734647,7.643880812478352,0.0,0.0,0.0,0.6735252983034647,0.7391641715784314,0.06629543311544962,0.7118698558402587,0.0,0.0,0.0,-0.016580553942529316,"(0.0, 0.0, 0.0, 0.0, 0.0, 0.0, 0.0, 0.0, 0.0, 0.0, 0.0, 0.0, 0.0, 0.0, 0.0)"
2023/03/04/12:43:34.383942,149342,1668508050,774660898,,-162.71660107640432,7.6510343017136435,0.0,0.0,0.0,0.6734650186800741,0.7392190937836004,0.06672886494697058,0.7152604595091551,0.0,0.0,0.0,-0.015954954318399148,"(0.0, 0.0, 0.0, 0.0, 0.0, 0.0, 0.0, 0.0, 0.0, 0.0, 0.0, 0.0, 0.0, 0.0, 0.0)"
2023/03/04/12:43:34.415348,149343,1668508050,784670091,,-162.7141365156248,7.671940569589992,0.0,0.0,0.0,0.6734477376461313,0.7392348372873857,0.07067459806855057,0.7571716386493805,0.0,0.0,0.0,-0.016216065243573698,"(0.0, 0.0, 0.0, 0.0, 0.0, 0.0, 0.0, 0.0, 0.0, 0.0, 0.0, 0.0, 0.0, 0.0, 0.0)"
2023/03/04/12:43:34.415368,149344,1668508050,794816815,,-162.71337863169614,7.679847050056618,0.0,0.0,0.0,0.6733879596067556,0.7392892910469152,0.07122025970027084,0.7616863456217472,0.0,0.0,0.0,-0.01583766555527437,"(0.0, 0.0, 0.0, 0.0, 0.0, 0.0, 0.0, 0.0, 0.0, 0.0, 0.0, 0.0, 0.0, 0.0, 0.0)"
2023/03/04/12:43:34.415393,149345,1668508050,804800651,,-162.71241947763505,7.687415125262197,0.0,0.0,0.0,0.673401026161371,0.7392773890528592,0.07152940230752626,0.7652844102362987,0.0,0.0,0.0,-0.015666515887497064,"(0.0, 0.0, 0.0, 0.0, 0.0, 0.0, 0.0, 0.0, 0.0, 0.0, 0.0, 0.0, 0.0, 0.0, 0.0)"
2023/03/04/12:43:34.418137,149346,1668508050,814575557,,-162.71168977913797,7.695094324757032,0.0,0.0,0.0,0.673343162019076,0.7393300928287394,0.07197994987035873,0.7688059242706687,0.0,0.0,0.0,-0.015610880769988338,"(0.0, 0.0, 0.0, 0.0, 0.0, 0.0, 0.0, 0.0, 0.0, 0.0, 0.0, 0.0, 0.0, 0.0, 0.0)"
2023/03/04/12:43:34.427898,149347,1668508050,824541187,,-162.71071620022425,7.702689022078464,0.0,0.0,0.0,0.6733672680155873,0.7393081376295165,0.07225670859413952,0.7723045693878806,0.0,0.0,0.0,-0.01557859827129202,"(0.0, 0.0, 0.0, 0.0, 0.0, 0.0, 0.0, 0.0, 0.0, 0.0, 0.0, 0.0, 0.0, 0.0, 0.0)"
2023/03/04/12:43:34.438194,149348,1668508050,834841446,,-162.7099826154207,7.710444121248611,0.0,0.0,0.0,0.6733097250442919,0.7393605440925152,0.07269869199179137,0.7757266971834654,0.0,0.0,0.0,-0.015503025642252009,"(0.0, 0.0, 0.0, 0.0, 0.0, 0.0, 0.0, 0.0, 0.0, 0.0, 0.0, 0.0, 0.0, 0.0, 0.0)"
2023/03/04/12:43:34.448298,149349,1668508050,844667884,,-162.7088756349038,7.718522846818428,0.0,0.0,0.0,0.6733452387663199,0.7393282014306823,0.07302091027869767,0.7799714617216315,0.0,0.0,0.0,-0.015361300427776677,"(0.0, 0.0, 0.0, 0.0, 0.0, 0.0, 0.0, 0.0, 0.0, 0.0, 0.0, 0.0, 0.0, 0.0, 0.0)"
2023/03/04/12:43:34.458028,149350,1668508050,854670739,,-162.70813528326158,7.726350781935292,0.0,0.0,0.0,0.6732890518407227,0.739379369925494,0.07344430334043524,0.7832112434421099,0.0,0.0,0.0,-0.014978511129304737,"(0.0, 0.0, 0.0, 0.0, 0.0, 0.0, 0.0, 0.0, 0.0, 0.0, 0.0, 0.0, 0.0, 0.0, 0.0)"
2023/03/04/12:43:34.473779,149351,1668508050,864824277,,-162.70567943675965,7.746729977690747,0.0,0.0,0.0,0.6733077035227365,0.7393623850162644,0.07699493121476074,0.8215210843159819,0.0,0.0,0.0,-0.015037720553046172,"(0.0, 0.0, 0.0, 0.0, 0.0, 0.0, 0.0, 0.0, 0.0, 0.0, 0.0, 0.0, 0.0, 0.0, 0.0)"
2023/03/04/12:43:34.509737,149352,1668508050,874652256,,-162.7048938403311,7.75496185963948,0.0,0.0,0.0,0.673253499747129,0.7394117425888248,0.07743866406376701,0.8249537273309899,0.0,0.0,0.0,-0.014244297628302894,"(0.0, 0.0, 0.0, 0.0, 0.0, 0.0, 0.0, 0.0, 0.0, 0.0, 0.0, 0.0, 0.0, 0.0, 0.0)"
2023/03/04/12:43:34.509788,149353,1668508050,884652232,,-162.7039325256506,7.763062529812795,0.0,0.0,0.0,0.6732581642833236,0.7394074953811661,0.07774508997854351,0.8283303963045934,0.0,0.0,0.0,-0.01350381616458493,"(0.0, 0.0, 0.0, 0.0, 0.0, 0.0, 0.0, 0.0, 0.0, 0.0, 0.0, 0.0, 0.0, 0.0, 0.0)"
2023/03/04/12:43:34.509815,149354,1668508050,894824817,,-162.70311968621706,7.771477464155085,0.0,0.0,0.0,0.6732092757951947,0.739452007221097,0.07819589338814358,0.8319510049412334,0.0,0.0,0.0,-0.012846151686678178,"(0.0, 0.0, 0.0, 0.0, 0.0, 0.0, 0.0, 0.0, 0.0, 0.0, 0.0, 0.0, 0.0, 0.0, 0.0)"
2023/03/04/12:43:34.509848,149355,1668508050,904658008,,-162.70218449781842,7.779725113993373,0.0,0.0,0.0,0.6731849731909333,0.7394741319815875,0.07855284532620137,0.8351595175699468,0.0,0.0,0.0,-0.012294910296697076,"(0.0, 0.0, 0.0, 0.0, 0.0, 0.0, 0.0, 0.0, 0.0, 0.0, 0.0, 0.0, 0.0, 0.0, 0.0)"
2023/03/04/12:43:34.518078,149356,1668508050,914672966,,-162.70137477591612,7.788098093297167,0.0,0.0,0.0,0.6731402862535033,0.7395148105498305,0.0789501045844982,0.8382964023756745,0.0,0.0,0.0,-0.011868089785762856,"(0.0, 0.0, 0.0, 0.0, 0.0, 0.0, 0.0, 0.0, 0.0, 0.0, 0.0, 0.0, 0.0, 0.0, 0.0)"
2023/03/04/12:43:34.528483,149357,1668508050,924945712,,-162.70057976889308,7.796492602816323,0.0,0.0,0.0,0.673074747536447,0.7395744615850037,0.07939616484706857,0.8414350816428523,0.0,0.0,0.0,-0.01171449278226885,"(0.0, 0.0, 0.0, 0.0, 0.0, 0.0, 0.0, 0.0, 0.0, 0.0, 0.0, 0.0, 0.0, 0.0, 0.0)"
2023/03/04/12:43:34.538335,149358,1668508050,934809223,,-162.69976646229406,7.804935821735817,0.0,0.0,0.0,0.6730314786732465,0.7396138375631592,0.07978670527289652,0.8445174373851541,0.0,0.0,0.0,-0.011673777841894308,"(0.0, 0.0, 0.0, 0.0, 0.0, 0.0, 0.0, 0.0, 0.0, 0.0, 0.0, 0.0, 0.0, 0.0, 0.0)"
2023/03/04/12:43:34.548370,149359,1668508050,944665221,,-162.697812153092,7.824515984949715,0.0,0.0,0.0,0.6729327350757446,0.7397036799039719,0.0832415238047917,0.8785804453511253,0.0,0.0,0.0,-0.012093393105392782,"(0.0, 0.0, 0.0, 0.0, 0.0, 0.0, 0.0, 0.0, 0.0, 0.0, 0.0, 0.0, 0.0, 0.0, 0.0)"
2023/03/04/12:43:34.558014,149360,1668508050,954553228,,-162.69696810638106,7.8333290718159825,0.0,0.0,0.0,0.6728879785676035,0.7397443938950834,0.08367126637897312,0.8819796166412646,0.0,0.0,0.0,-0.012077162054377083,"(0.0, 0.0, 0.0, 0.0, 0.0, 0.0, 0.0, 0.0, 0.0, 0.0, 0.0, 0.0, 0.0, 0.0, 0.0)"
2023/03/04/12:43:34.574308,149361,1668508050,964825910,,-162.6961514064393,7.842146840304265,0.0,0.0,0.0,0.6728350277781112,0.739792555649777,0.08411540115279023,0.8853132675404316,0.0,0.0,0.0,-0.012092566467563064,"(0.0, 0.0, 0.0, 0.0, 0.0, 0.0, 0.0, 0.0, 0.0, 0.0, 0.0, 0.0, 0.0, 0.0, 0.0)"
2023/03/04/12:43:34.604229,149362,1668508050,974544913,,-162.6953035751664,7.8510276545464,0.0,0.0,0.0,0.6727899460318679,0.7398335546043017,0.08453537976803378,0.8885834338767526,0.0,0.0,0.0,-0.012270740798510415,"(0.0, 0.0, 0.0, 0.0, 0.0, 0.0, 0.0, 0.0, 0.0, 0.0, 0.0, 0.0, 0.0, 0.0, 0.0)"
2023/03/04/12:43:34.604275,149363,1668508050,984542661,,-162.6945219881602,7.859969261390797,0.0,0.0,0.0,0.672729436307387,0.7398885764259003,0.08497934542706452,0.8917030740264512,0.0,0.0,0.0,-0.012340730525203382,"(0.0, 0.0, 0.0, 0.0, 0.0, 0.0, 0.0, 0.0, 0.0, 0.0, 0.0, 0.0, 0.0, 0.0, 0.0)"
2023/03/04/12:43:34.604311,149364,1668508050,994670655,,-162.69368510701636,7.868769682027518,0.0,0.0,0.0,0.6726840939755944,0.739929800529911,0.08534502485231446,0.8943795232976529,0.0,0.0,0.0,-0.012210958952298009,"(0.0, 0.0, 0.0, 0.0, 0.0, 0.0, 0.0, 0.0, 0.0, 0.0, 0.0, 0.0, 0.0, 0.0, 0.0)"
2023/03/04/12:43:34.608084,149365,1668508051,4663399,,-162.69292571865122,7.877814532244143,0.0,0.0,0.0,0.6726204313244546,0.7399876724411729,0.0857770273164893,0.8972739751144593,0.0,0.0,0.0,-0.01216929685036966,"(0.0, 0.0, 0.0, 0.0, 0.0, 0.0, 0.0, 0.0, 0.0, 0.0, 0.0, 0.0, 0.0, 0.0, 0.0)"
2023/03/04/12:43:34.618286,149366,1668508051,14827323,,-162.69206699427346,7.886800673833946,0.0,0.0,0.0,0.6725752914794622,0.7400287003159516,0.08615883295241378,0.9001086675316031,0.0,0.0,0.0,-0.01223668961407268,"(0.0, 0.0, 0.0, 0.0, 0.0, 0.0, 0.0, 0.0, 0.0, 0.0, 0.0, 0.0, 0.0, 0.0, 0.0)"
2023/03/04/12:43:34.628216,149367,1668508051,24623832,,-162.69034875304442,7.90655553711159,0.0,0.0,0.0,0.6724299105551347,0.7401608037384941,0.08963655456651293,0.9325778722611539,0.0,0.0,0.0,-0.012686509962409193,"(0.0, 0.0, 0.0, 0.0, 0.0, 0.0, 0.0, 0.0, 0.0, 0.0, 0.0, 0.0, 0.0, 0.0, 0.0)"
2023/03/04/12:43:34.638261,149368,1668508051,34657127,,-162.68945291228283,7.915901432625562,0.0,0.0,0.0,0.6723830252799577,0.7402033959091053,0.09005592116330788,0.9356962666143396,0.0,0.0,0.0,-0.012628589124926294,"(0.0, 0.0, 0.0, 0.0, 0.0, 0.0, 0.0, 0.0, 0.0, 0.0, 0.0, 0.0, 0.0, 0.0, 0.0)"
2023/03/04/12:43:34.647944,149369,1668508051,44555648,,-162.68887092543773,7.925349924853921,0.0,0.0,0.0,0.6722237630123717,0.7403480346711854,0.09078965860460288,0.939082535486325,0.0,0.0,0.0,-0.01261385502643997,"(0.0, 0.0, 0.0, 0.0, 0.0, 0.0, 0.0, 0.0, 0.0, 0.0, 0.0, 0.0, 0.0, 0.0, 0.0)"
2023/03/04/12:43:34.663540,149370,1668508051,54552910,,-162.68796293992506,7.9347694342315584,0.0,0.0,0.0,0.6721769970286692,0.7403904947158091,0.09120589606003043,0.9421452538422427,0.0,0.0,0.0,-0.012635224433303319,"(0.0, 0.0, 0.0, 0.0, 0.0, 0.0, 0.0, 0.0, 0.0, 0.0, 0.0, 0.0, 0.0, 0.0, 0.0)"
2023/03/04/12:43:34.668221,149371,1668508051,64819362,,-162.68724690796904,7.944189866846098,0.0,0.0,0.0,0.6720718489427682,0.7404859417022372,0.09176697735580981,0.9451421858516166,0.0,0.0,0.0,-0.012663962041381758,"(0.0, 0.0, 0.0, 0.0, 0.0, 0.0, 0.0, 0.0, 0.0, 0.0, 0.0, 0.0, 0.0, 0.0, 0.0)"
2023/03/04/12:43:34.688695,149372,1668508051,74548748,,-162.68632914087215,7.953675183254494,0.0,0.0,0.0,0.6720249147948925,0.7405285368538592,0.09217355689197455,0.9480802297617095,0.0,0.0,0.0,-0.01266251410919362,"(0.0, 0.0, 0.0, 0.0, 0.0, 0.0, 0.0, 0.0, 0.0, 0.0, 0.0, 0.0, 0.0, 0.0, 0.0)"
2023/03/04/12:43:34.688733,149373,1668508051,84550548,,-162.68599402470932,7.963225924515829,0.0,0.0,0.0,0.67178834419255,0.7407431542761851,0.09305541417916896,0.9508435073127374,0.0,0.0,0.0,-0.012654225695767284,"(0.0, 0.0, 0.0, 0.0, 0.0, 0.0, 0.0, 0.0, 0.0, 0.0, 0.0, 0.0, 0.0, 0.0, 0.0)"
2023/03/04/12:43:34.698093,149374,1668508051,94658715,,-162.68508164031337,7.972606239376132,0.0,0.0,0.0,0.67174145555672,0.7407856754058755,0.09340373036813726,0.9531578279293056,0.0,0.0,0.0,-0.01273465697504953,"(0.0, 0.0, 0.0, 0.0, 0.0, 0.0, 0.0, 0.0, 0.0, 0.0, 0.0, 0.0, 0.0, 0.0, 0.0)"
2023/03/04/12:43:34.708241,149375,1668508051,104684991,,-162.68372295780617,7.991152871990563,0.0,0.0,0.0,0.671511767878428,0.7409938903936982,0.09672152203172268,0.9807495101395317,0.0,0.0,0.0,-0.013397955425487053,"(0.0, 0.0, 0.0, 0.0, 0.0, 0.0, 0.0, 0.0, 0.0, 0.0, 0.0, 0.0, 0.0, 0.0, 0.0)"
2023/03/04/12:43:34.718039,149376,1668508051,114551200,,-162.68276227512007,8.000978084925665,0.0,0.0,0.0,0.6714616826996888,0.7410392760617365,0.09713473241925911,0.9835781016086714,0.0,0.0,0.0,-0.013630022685946458,"(0.0, 0.0, 0.0, 0.0, 0.0, 0.0, 0.0, 0.0, 0.0, 0.0, 0.0, 0.0, 0.0, 0.0, 0.0)"
2023/03/04/12:43:34.728388,149377,1668508051,124838409,,-162.6824561067091,8.010847752891108,0.0,0.0,0.0,0.6712098665558239,0.7412673708171115,0.09808033721723147,0.9863000201216638,0.0,0.0,0.0,-0.013910449994741612,"(0.0, 0.0, 0.0, 0.0, 0.0, 0.0, 0.0, 0.0, 0.0, 0.0, 0.0, 0.0, 0.0, 0.0, 0.0)"
2023/03/04/12:43:34.738138,149378,1668508051,134673633,,-162.68148392972873,8.020736595590735,0.0,0.0,0.0,0.6711576923451943,0.7413146106788085,0.09849492623947634,0.9890552261163309,0.0,0.0,0.0,-0.01424210524370786,"(0.0, 0.0, 0.0, 0.0, 0.0, 0.0, 0.0, 0.0, 0.0, 0.0, 0.0, 0.0, 0.0, 0.0, 0.0)"
2023/03/04/12:43:34.748115,149379,1668508051,144665010,,-162.6812055686182,8.030718490786791,0.0,0.0,0.0,0.6708939677301372,0.7415532914520127,0.09947637974427738,0.9917552413643452,0.0,0.0,0.0,-0.014589878082685097,"(0.0, 0.0, 0.0, 0.0, 0.0, 0.0, 0.0, 0.0, 0.0, 0.0, 0.0, 0.0, 0.0, 0.0, 0.0)"
2023/03/04/12:43:34.764287,149380,1668508051,154667151,,-162.68022142159668,8.040662409123332,0.0,0.0,0.0,0.670839532297348,0.7416025363407782,0.09988950048087479,0.9944038230989305,0.0,0.0,0.0,-0.014745197991111531,"(0.0, 0.0, 0.0, 0.0, 0.0, 0.0, 0.0, 0.0, 0.0, 0.0, 0.0, 0.0, 0.0, 0.0, 0.0)"
2023/03/04/12:43:34.768025,149381,1668508051,164581644,,-162.67960737643384,8.050677744212674,0.0,0.0,0.0,0.6706662352694562,0.7417592607237838,0.10061859935513069,0.9969769957297869,0.0,0.0,0.0,-0.014863216243568707,"(0.0, 0.0, 0.0, 0.0, 0.0, 0.0, 0.0, 0.0, 0.0, 0.0, 0.0, 0.0, 0.0, 0.0, 0.0)"
2023/03/04/12:43:34.790242,149382,1668508051,174538608,,-162.67860986921752,8.060674896030786,0.0,0.0,0.0,0.6706109310013615,0.7418092606738522,0.10102673703308322,0.9995291821777014,0.0,0.0,0.0,-0.014940485777647774,"(0.0, 0.0, 0.0, 0.0, 0.0, 0.0, 0.0, 0.0, 0.0, 0.0, 0.0, 0.0, 0.0, 0.0, 0.0)"
2023/03/04/12:43:34.790273,149383,1668508051,184799845,,-162.67723306594843,8.0784787538822,0.0,0.0,0.0,0.6704000090447279,0.7419998840113311,0.10403831823154756,1.0235079677307835,0.0,0.0,0.0,-0.015324854280426467,"(0.0, 0.0, 0.0, 0.0, 0.0, 0.0, 0.0, 0.0, 0.0, 0.0, 0.0, 0.0, 0.0, 0.0, 0.0)"
2023/03/04/12:43:34.797933,149384,1668508051,194656118,,-162.67619560465602,8.088776345577195,0.0,0.0,0.0,0.6703430062955702,0.7420513822577363,0.104467615246629,1.0261642193460332,0.0,0.0,0.0,-0.015388414568737031,"(0.0, 0.0, 0.0, 0.0, 0.0, 0.0, 0.0, 0.0, 0.0, 0.0, 0.0, 0.0, 0.0, 0.0, 0.0)"
2023/03/04/12:43:34.808299,149385,1668508051,204637648,,-162.67533982375693,8.099029928970944,0.0,0.0,0.0,0.6702249677832568,0.7421579970329313,0.10504460076480912,1.0285842831643572,0.0,0.0,0.0,-0.015479221976431846,"(0.0, 0.0, 0.0, 0.0, 0.0, 0.0, 0.0, 0.0, 0.0, 0.0, 0.0, 0.0, 0.0, 0.0, 0.0)"
2023/03/04/12:43:34.818167,149386,1668508051,214658028,,-162.67429896559165,8.109319692753438,0.0,0.0,0.0,0.6701670891027715,0.7422102617745985,0.10544784971303786,1.0309419219631346,0.0,0.0,0.0,-0.015746386542043557,"(0.0, 0.0, 0.0, 0.0, 0.0, 0.0, 0.0, 0.0, 0.0, 0.0, 0.0, 0.0, 0.0, 0.0, 0.0)"
2023/03/04/12:43:34.828207,149387,1668508051,224660438,,-162.67330202019335,8.11962136661958,0.0,0.0,0.0,0.6701029852160478,0.7422681383466094,0.10586242070440707,1.033231934686407,0.0,0.0,0.0,-0.01601572064627513,"(0.0, 0.0, 0.0, 0.0, 0.0, 0.0, 0.0, 0.0, 0.0, 0.0, 0.0, 0.0, 0.0, 0.0, 0.0)"
2023/03/04/12:43:34.838074,149388,1668508051,234670607,,-162.6722549493611,8.129960815924925,0.0,0.0,0.0,0.6700430493113538,0.7423222427420201,0.10626807700682205,1.0355418704568882,0.0,0.0,0.0,-0.016288165547282223,"(0.0, 0.0, 0.0, 0.0, 0.0, 0.0, 0.0, 0.0, 0.0, 0.0, 0.0, 0.0, 0.0, 0.0, 0.0)"
2023/03/04/12:43:34.848438,149389,1668508051,244677586,,-162.671123587243,8.139990472258914,0.0,0.0,0.0,0.6700159761320733,0.7423466789363209,0.10648398075558457,1.03690099585132,0.0,0.0,0.0,-0.016446038946214367,"(0.0, 0.0, 0.0, 0.0, 0.0, 0.0, 0.0, 0.0, 0.0, 0.0, 0.0, 0.0, 0.0, 0.0, 0.0)"
2023/03/04/12:43:34.858322,149390,1668508051,254660890,,-162.67007007127376,8.150366885721985,0.0,0.0,0.0,0.6699547615181262,0.7424019245120467,0.10688437553478627,1.0391135630635477,0.0,0.0,0.0,-0.016528845618818743,"(0.0, 0.0, 0.0, 0.0, 0.0, 0.0, 0.0, 0.0, 0.0, 0.0, 0.0, 0.0, 0.0, 0.0, 0.0)"
2023/03/04/12:43:34.868276,149391,1668508051,264663136,,-162.66812898448123,8.166100724927436,0.0,0.0,0.0,0.6699623843144972,0.7423950455139325,0.10863939274598775,1.056388704685512,0.0,0.0,0.0,-0.01686633167524757,"(0.0, 0.0, 0.0, 0.0, 0.0, 0.0, 0.0, 0.0, 0.0, 0.0, 0.0, 0.0, 0.0, 0.0, 0.0)"
2023/03/04/12:43:34.878183,149392,1668508051,274657953,,-162.6670530532285,8.176670566095696,0.0,0.0,0.0,0.6698995321645335,0.7424517605917162,0.10905159278265546,1.0586354593117422,0.0,0.0,0.0,-0.017005183165299437,"(0.0, 0.0, 0.0, 0.0, 0.0, 0.0, 0.0, 0.0, 0.0, 0.0, 0.0, 0.0, 0.0, 0.0, 0.0)"
2023/03/04/12:43:34.888279,149393,1668508051,284659568,,-162.6656717728115,8.187218586407264,0.0,0.0,0.0,0.6699285094382887,0.742425613945123,0.10919927952138776,1.0608815871175243,0.0,0.0,0.0,-0.01707811401932647,"(0.0, 0.0, 0.0, 0.0, 0.0, 0.0, 0.0, 0.0, 0.0, 0.0, 0.0, 0.0, 0.0, 0.0, 0.0)"
2023/03/04/12:43:34.898171,149394,1668508051,294658110,,-162.6646057059188,8.19768361521751,0.0,0.0,0.0,0.6698651740510506,0.7424827597955092,0.10955853602135333,1.0625918594523456,0.0,0.0,0.0,-0.017127596715695855,"(0.0, 0.0, 0.0, 0.0, 0.0, 0.0, 0.0, 0.0, 0.0, 0.0, 0.0, 0.0, 0.0, 0.0, 0.0)"
2023/03/04/12:43:34.908255,149395,1668508051,304658326,,-162.66309911642398,8.208273975894205,0.0,0.0,0.0,0.6699181470668938,0.7424349643103156,0.10962112581630493,1.0646880673571033,0.0,0.0,0.0,-0.01732177943519129,"(0.0, 0.0, 0.0, 0.0, 0.0, 0.0, 0.0, 0.0, 0.0, 0.0, 0.0, 0.0, 0.0, 0.0, 0.0)"
2023/03/04/12:43:35.028490,149396,1668508051,314670060,,-162.6620149303854,8.21891705921131,0.0,0.0,0.0,0.6698531780767324,0.7424935823429731,0.11000762959452942,1.0666097228281723,0.0,0.0,0.0,-0.017722289956845206,"(0.0, 0.0, 0.0, 0.0, 0.0, 0.0, 0.0, 0.0, 0.0, 0.0, 0.0, 0.0, 0.0, 0.0, 0.0)"
2023/03/04/12:43:35.028548,149397,1668508051,324660607,,-162.66043519038013,8.229551341380525,0.0,0.0,0.0,0.6699120515327418,0.7424404644220256,0.110031932631616,1.0685057883873486,0.0,0.0,0.0,-0.018096280364952328,"(0.0, 0.0, 0.0, 0.0, 0.0, 0.0, 0.0, 0.0, 0.0, 0.0, 0.0, 0.0, 0.0, 0.0, 0.0)"
2023/03/04/12:43:35.028580,149398,1668508051,334663658,,-162.65935039117497,8.240232659485308,0.0,0.0,0.0,0.6698442934956991,0.7425015976220171,0.11041485355036315,1.0703070847645175,0.0,0.0,0.0,-0.018433109347079594,"(0.0, 0.0, 0.0, 0.0, 0.0, 0.0, 0.0, 0.0, 0.0, 0.0, 0.0, 0.0, 0.0, 0.0, 0.0)"
2023/03/04/12:43:35.028870,149399,1668508051,344679901,,-162.6575243549642,8.253857238714332,0.0,0.0,0.0,0.6698777807534468,0.7424713858815281,0.11135898217031538,1.0804137423442615,0.0,0.0,0.0,-0.01894864017511227,"(0.0, 0.0, 0.0, 0.0, 0.0, 0.0, 0.0, 0.0, 0.0, 0.0, 0.0, 0.0, 0.0, 0.0, 0.0)"
2023/03/04/12:43:35.028908,149400,1668508051,354656565,,-162.6564272831558,8.264665171062548,0.0,0.0,0.0,0.6698069161828861,0.7425353156810605,0.11176258870671534,1.0823038762144421,0.0,0.0,0.0,-0.01922767137046677,"(0.0, 0.0, 0.0, 0.0, 0.0, 0.0, 0.0, 0.0, 0.0, 0.0, 0.0, 0.0, 0.0, 0.0, 0.0)"
2023/03/04/12:43:35.028948,149401,1668508051,364657993,,-162.65483096369948,8.275452755178065,0.0,0.0,0.0,0.6698554998120109,0.7424914877435304,0.11181764097647375,1.0842256369528729,0.0,0.0,0.0,-0.019378764676106098,"(0.0, 0.0, 0.0, 0.0, 0.0, 0.0, 0.0, 0.0, 0.0, 0.0, 0.0, 0.0, 0.0, 0.0, 0.0)"
2023/03/04/12:43:35.029021,149402,1668508051,374813273,,-162.65372684284662,8.28630122515944,0.0,0.0,0.0,0.6697833894696177,0.7425565373697752,0.1122169706432458,1.086030536919869,0.0,0.0,0.0,-0.019465438973486432,"(0.0, 0.0, 0.0, 0.0, 0.0, 0.0, 0.0, 0.0, 0.0, 0.0, 0.0, 0.0, 0.0, 0.0, 0.0)"
2023/03/04/12:43:35.029038,149403,1668508051,384621364,,-162.65218480948556,8.297138303333918,0.0,0.0,0.0,0.6697920459029639,0.7425487292057821,0.11237435301089409,1.087801752837714,0.0,0.0,0.0,-0.019425063341405695,"(0.0, 0.0, 0.0, 0.0, 0.0, 0.0, 0.0, 0.0, 0.0, 0.0, 0.0, 0.0, 0.0, 0.0, 0.0)"
2023/03/04/12:43:35.066865,149404,1668508051,394662617,,-162.6510761384553,8.307975347035436,0.0,0.0,0.0,0.6697201791101725,0.7426135480131227,0.11274768563759627,1.089352743735234,0.0,0.0,0.0,-0.01931246931755947,"(0.0, 0.0, 0.0, 0.0, 0.0, 0.0, 0.0, 0.0, 0.0, 0.0, 0.0, 0.0, 0.0, 0.0, 0.0)"
2023/03/04/12:43:35.066921,149405,1668508051,404662270,,-162.6496005573288,8.31885694886068,0.0,0.0,0.0,0.6697133309407928,0.7426197239234816,0.11293802383913457,1.0909952702650558,0.0,0.0,0.0,-0.019401601576528288,"(0.0, 0.0, 0.0, 0.0, 0.0, 0.0, 0.0, 0.0, 0.0, 0.0, 0.0, 0.0, 0.0, 0.0, 0.0)"
2023/03/04/12:43:35.066966,149406,1668508051,414659945,,-162.64848112706838,8.32976764224736,0.0,0.0,0.0,0.6696408920710867,0.742685044730429,0.11331626441970238,1.0925680581548143,0.0,0.0,0.0,-0.019637941305166752,"(0.0, 0.0, 0.0, 0.0, 0.0, 0.0, 0.0, 0.0, 0.0, 0.0, 0.0, 0.0, 0.0, 0.0, 0.0)"
2023/03/04/12:43:35.067003,149407,1668508051,424657269,,-162.6466708142134,8.342803713685392,0.0,0.0,0.0,0.6696783674823646,0.7426512533660432,0.11394278627701826,1.0996903902189967,0.0,0.0,0.0,-0.019891144758086184,"(0.0, 0.0, 0.0, 0.0, 0.0, 0.0, 0.0, 0.0, 0.0, 0.0, 0.0, 0.0, 0.0, 0.0, 0.0)"
2023/03/04/12:43:35.067024,149408,1668508051,434661559,,-162.64554208452554,8.353798957712762,0.0,0.0,0.0,0.66960447793471,0.7427178758652471,0.11431623129735745,1.1011571903698472,0.0,0.0,0.0,-0.01991716406347441,"(0.0, 0.0, 0.0, 0.0, 0.0, 0.0, 0.0, 0.0, 0.0, 0.0, 0.0, 0.0, 0.0, 0.0, 0.0)"
2023/03/04/12:43:35.067061,149409,1668508051,444814700,,-162.64407078680378,8.36445570160229,0.0,0.0,0.0,0.6696306382786388,0.7426942899191717,0.1142661201432721,1.1014299444770534,0.0,0.0,0.0,-0.01993327302714423,"(0.0, 0.0, 0.0, 0.0, 0.0, 0.0, 0.0, 0.0, 0.0, 0.0, 0.0, 0.0, 0.0, 0.0, 0.0)"
2023/03/04/12:43:35.067094,149410,1668508051,454662082,,-162.6429364400592,8.375482109543242,0.0,0.0,0.0,0.669556423872385,0.742761196651537,0.11465923564000349,1.1030714692817636,0.0,0.0,0.0,-0.020013289733747133,"(0.0, 0.0, 0.0, 0.0, 0.0, 0.0, 0.0, 0.0, 0.0, 0.0, 0.0, 0.0, 0.0, 0.0, 0.0)"
2023/03/04/12:43:35.068264,149411,1668508051,464653004,,-162.64131128215075,8.386617387983812,0.0,0.0,0.0,0.6695989584726088,0.7427228519524612,0.11470275225087367,1.1047205097562658,0.0,0.0,0.0,-0.02013644205831089,"(0.0, 0.0, 0.0, 0.0, 0.0, 0.0, 0.0, 0.0, 0.0, 0.0, 0.0, 0.0, 0.0, 0.0, 0.0)"
2023/03/04/12:43:35.078364,149412,1668508051,474797645,,-162.64017197119267,8.397681611337198,0.0,0.0,0.0,0.6695240030335409,0.7427904208873073,0.11509558074211645,1.1063301219486816,0.0,0.0,0.0,-0.02019335155157033,"(0.0, 0.0, 0.0, 0.0, 0.0, 0.0, 0.0, 0.0, 0.0, 0.0, 0.0, 0.0, 0.0, 0.0, 0.0)"
2023/03/04/12:43:35.120815,149413,1668508051,484553108,,-162.63863741937794,8.40873638609418,0.0,0.0,0.0,0.6695430256815542,0.742773274129589,0.11520687787607833,1.1079513308407078,0.0,0.0,0.0,-0.020198254642109954,"(0.0, 0.0, 0.0, 0.0, 0.0, 0.0, 0.0, 0.0, 0.0, 0.0, 0.0, 0.0, 0.0, 0.0, 0.0)"
2023/03/04/12:43:35.120877,149414,1668508051,494865508,,-162.63752482861327,8.419547422942175,0.0,0.0,0.0,0.6694682573299542,0.7428406642259121,0.11550807633926298,1.1086782764842662,0.0,0.0,0.0,-0.02021389755811081,"(0.0, 0.0, 0.0, 0.0, 0.0, 0.0, 0.0, 0.0, 0.0, 0.0, 0.0, 0.0, 0.0, 0.0, 0.0)"
2023/03/04/12:43:35.120924,149415,1668508051,504670690,,-162.63586259073656,8.433134014678844,0.0,0.0,0.0,0.6694364832580793,0.7428692986542488,0.11647841803506362,1.1170647053327711,0.0,0.0,0.0,-0.020371229831135748,"(0.0, 0.0, 0.0, 0.0, 0.0, 0.0, 0.0, 0.0, 0.0, 0.0, 0.0, 0.0, 0.0, 0.0, 0.0)"
2023/03/04/12:43:35.120975,149416,1668508051,514616757,,-162.6347053752801,8.4443099891432,0.0,0.0,0.0,0.66936075538061,0.7429375338184895,0.11685099504408614,1.11842728934169,0.0,0.0,0.0,-0.020401866347354275,"(0.0, 0.0, 0.0, 0.0, 0.0, 0.0, 0.0, 0.0, 0.0, 0.0, 0.0, 0.0, 0.0, 0.0, 0.0)"
2023/03/04/12:43:35.128077,149417,1668508051,524549062,,-162.63334618655156,8.45546257563192,0.0,0.0,0.0,0.6693043076633556,0.7429883873542549,0.11714643213798975,1.1196088726265943,0.0,0.0,0.0,-0.020428398797079892,"(0.0, 0.0, 0.0, 0.0, 0.0, 0.0, 0.0, 0.0, 0.0, 0.0, 0.0, 0.0, 0.0, 0.0, 0.0)"
2023/03/04/12:43:35.138195,149418,1668508051,534624888,,-162.63218217075985,8.466663619822079,0.0,0.0,0.0,0.6692283905798191,0.7430567685190312,0.11750323067794088,1.1208059612072807,0.0,0.0,0.0,-0.02045456369403305,"(0.0, 0.0, 0.0, 0.0, 0.0, 0.0, 0.0, 0.0, 0.0, 0.0, 0.0, 0.0, 0.0, 0.0, 0.0)"
2023/03/04/12:43:35.148223,149419,1668508051,544667681,,-162.63100138729973,8.477636737172135,0.0,0.0,0.0,0.6691249642032993,0.7431499056582954,0.11787494771939103,1.121341421731044,0.0,0.0,0.0,-0.020316237153750617,"(0.0, 0.0, 0.0, 0.0, 0.0, 0.0, 0.0, 0.0, 0.0, 0.0, 0.0, 0.0, 0.0, 0.0, 0.0)"
2023/03/04/12:43:35.163278,149420,1668508051,554668768,,-162.6298275437302,8.488864528200168,0.0,0.0,0.0,0.6690494756812236,0.7432178678494481,0.1182377874352,1.122599605836373,0.0,0.0,0.0,-0.020308874394839936,"(0.0, 0.0, 0.0, 0.0, 0.0, 0.0, 0.0, 0.0, 0.0, 0.0, 0.0, 0.0, 0.0, 0.0, 0.0)"
2023/03/04/12:43:35.168222,149421,1668508051,564832074,,-162.6284109019712,8.500077284273631,0.0,0.0,0.0,0.6689991661312451,0.7432631537454946,0.11853258828529377,1.123937875370422,0.0,0.0,0.0,-0.020288495325746832,"(0.0, 0.0, 0.0, 0.0, 0.0, 0.0, 0.0, 0.0, 0.0, 0.0, 0.0, 0.0, 0.0, 0.0, 0.0)"
2023/03/04/12:43:35.225485,149422,1668508051,574672846,,-162.62722901211424,8.511341547777892,0.0,0.0,0.0,0.6689236885749779,0.7433310829389862,0.11890140168322164,1.125243964697674,0.0,0.0,0.0,-0.020300123770099945,"(0.0, 0.0, 0.0, 0.0, 0.0, 0.0, 0.0, 0.0, 0.0, 0.0, 0.0, 0.0, 0.0, 0.0, 0.0)"
2023/03/04/12:43:35.225526,149423,1668508051,584833693,,-162.6260986953108,8.523202717839247,0.0,0.0,0.0,0.6687533951042588,0.7434842947477285,0.11971846538303765,1.128030720764602,0.0,0.0,0.0,-0.02019252845063166,"(0.0, 0.0, 0.0, 0.0, 0.0, 0.0, 0.0, 0.0, 0.0, 0.0, 0.0, 0.0, 0.0, 0.0, 0.0)"
2023/03/04/12:43:35.225578,149424,1668508051,594657424,,-162.62497426590835,8.53390428686439,0.0,0.0,0.0,0.6686790371769692,0.7435511719041813,0.11988879799023888,1.1274867828955129,0.0,0.0,0.0,-0.02018490635065139,"(0.0, 0.0, 0.0, 0.0, 0.0, 0.0, 0.0, 0.0, 0.0, 0.0, 0.0, 0.0, 0.0, 0.0, 0.0)"
2023/03/04/12:43:35.225632,149425,1668508051,604677199,,-162.62385019846354,8.545171407831111,0.0,0.0,0.0,0.6685101315849478,0.74370303479835,0.12050126251749019,1.128371297752747,0.0,0.0,0.0,-0.02019851470601343,"(0.0, 0.0, 0.0, 0.0, 0.0, 0.0, 0.0, 0.0, 0.0, 0.0, 0.0, 0.0, 0.0, 0.0, 0.0)"
2023/03/04/12:43:35.225656,149426,1668508051,614674241,,-162.6226518913142,8.556454478856049,0.0,0.0,0.0,0.6684347818629727,0.7437707593041017,0.12082619259259941,1.129246851092915,0.0,0.0,0.0,-0.020362560386412546,"(0.0, 0.0, 0.0, 0.0, 0.0, 0.0, 0.0, 0.0, 0.0, 0.0, 0.0, 0.0, 0.0, 0.0, 0.0)"
2023/03/04/12:43:35.228401,149427,1668508051,624858721,,-162.62151098577738,8.567726388309254,0.0,0.0,0.0,0.6682785662234425,0.7439111223300401,0.12138624023987475,1.1299942290009666,0.0,0.0,0.0,-0.0204061389230014,"(0.0, 0.0, 0.0, 0.0, 0.0, 0.0, 0.0, 0.0, 0.0, 0.0, 0.0, 0.0, 0.0, 0.0, 0.0)"
2023/03/04/12:43:35.238124,149428,1668508051,634679000,,-162.62030508370043,8.579028612823238,0.0,0.0,0.0,0.6682024481246853,0.7439794945562527,0.12171265918520492,1.1308537621857773,0.0,0.0,0.0,-0.020543058370471646,"(0.0, 0.0, 0.0, 0.0, 0.0, 0.0, 0.0, 0.0, 0.0, 0.0, 0.0, 0.0, 0.0, 0.0, 0.0)"
2023/03/04/12:43:35.255639,149429,1668508051,644557697,,-162.6190157032113,8.589925985731755,0.0,0.0,0.0,0.6680933915114771,0.7440774289136126,0.12202046809232847,1.1305984598589425,0.0,0.0,0.0,-0.02060650973357989,"(0.0, 0.0, 0.0, 0.0, 0.0, 0.0, 0.0, 0.0, 0.0, 0.0, 0.0, 0.0, 0.0, 0.0, 0.0)"
2023/03/04/12:43:35.258518,149430,1668508051,654660405,,-162.6178036612699,8.601242436998676,0.0,0.0,0.0,0.6680164801417705,0.7441464790342016,0.12236181237872751,1.1315685417276085,0.0,0.0,0.0,-0.02071944721293832,"(0.0, 0.0, 0.0, 0.0, 0.0, 0.0, 0.0, 0.0, 0.0, 0.0, 0.0, 0.0, 0.0, 0.0, 0.0)"
2023/03/04/12:43:35.268464,149431,1668508051,664842295,,-162.61640818730808,8.612113679612401,0.0,0.0,0.0,0.6679543648861646,0.7442022348995738,0.12254095348553874,1.1314579981601685,0.0,0.0,0.0,-0.020859362422893917,"(0.0, 0.0, 0.0, 0.0, 0.0, 0.0, 0.0, 0.0, 0.0, 0.0, 0.0, 0.0, 0.0, 0.0, 0.0)"
2023/03/04/12:43:35.282943,149432,1668508051,674670743,,-162.6151921468028,8.623436151771763,0.0,0.0,0.0,0.6678764939723527,0.7442721201275766,0.12288848690265791,1.1324530432863873,0.0,0.0,0.0,-0.020953323505476247,"(0.0, 0.0, 0.0, 0.0, 0.0, 0.0, 0.0, 0.0, 0.0, 0.0, 0.0, 0.0, 0.0, 0.0, 0.0)"
2023/03/04/12:43:35.288437,149433,1668508051,684836132,,-162.61357711870914,8.634705586228186,0.0,0.0,0.0,0.6678556017970313,0.7442908673014369,0.12305271587046294,1.1333732006438708,0.0,0.0,0.0,-0.02103283017324622,"(0.0, 0.0, 0.0, 0.0, 0.0, 0.0, 0.0, 0.0, 0.0, 0.0, 0.0, 0.0, 0.0, 0.0, 0.0)"
2023/03/04/12:43:35.298183,149434,1668508051,694664152,,-162.61238803021718,8.645772154678953,0.0,0.0,0.0,0.6677775764416477,0.7443608724279638,0.12329538713447315,1.1333938732298101,0.0,0.0,0.0,-0.021056082668483266,"(0.0, 0.0, 0.0, 0.0, 0.0, 0.0, 0.0, 0.0, 0.0, 0.0, 0.0, 0.0, 0.0, 0.0, 0.0)"
2023/03/04/12:43:35.308147,149435,1668508051,704665331,,-162.61070793107774,8.657034632218586,0.0,0.0,0.0,0.6677903886838165,0.7443493781696316,0.1233389344669337,1.13415733569716,0.0,0.0,0.0,-0.021083157088845273,"(0.0, 0.0, 0.0, 0.0, 0.0, 0.0, 0.0, 0.0, 0.0, 0.0, 0.0, 0.0, 0.0, 0.0, 0.0)"
2023/03/04/12:43:35.318114,149436,1668508051,714664304,,-162.60948511176906,8.668362934218974,0.0,0.0,0.0,0.6677119342581728,0.744419755816038,0.12363881433988538,1.1346894253599857,0.0,0.0,0.0,-0.021103811347060634,"(0.0, 0.0, 0.0, 0.0, 0.0, 0.0, 0.0, 0.0, 0.0, 0.0, 0.0, 0.0, 0.0, 0.0, 0.0)"
2023/03/04/12:43:35.328434,149437,1668508051,724829644,,-162.60766743472354,8.679610031138546,0.0,0.0,0.0,0.667756653402767,0.7443796422769344,0.12355913117622992,1.1352247429906177,0.0,0.0,0.0,-0.02112180826136961,"(0.0, 0.0, 0.0, 0.0, 0.0, 0.0, 0.0, 0.0, 0.0, 0.0, 0.0, 0.0, 0.0, 0.0, 0.0)"
2023/03/04/12:43:35.338198,149438,1668508051,734672074,,-162.60644188302396,8.690947876957912,0.0,0.0,0.0,0.6676780471749226,0.7444501496545499,0.12385674413091423,1.1357292592204848,0.0,0.0,0.0,-0.02113841957252338,"(0.0, 0.0, 0.0, 0.0, 0.0, 0.0, 0.0, 0.0, 0.0, 0.0, 0.0, 0.0, 0.0, 0.0, 0.0)"
2023/03/04/12:43:35.353281,149439,1668508051,744671879,,-162.60497566288865,8.699877177898234,0.0,0.0,0.0,0.6677110804023164,0.7444205216864802,0.12309469214168743,1.1296717037684543,0.0,0.0,0.0,-0.021032861358766152,"(0.0, 0.0, 0.0, 0.0, 0.0, 0.0, 0.0, 0.0, 0.0, 0.0, 0.0, 0.0, 0.0, 0.0, 0.0)"
2023/03/04/12:43:35.358150,149440,1668508051,754670307,,-162.60375256478684,8.711175331762766,0.0,0.0,0.0,0.6676327425962009,0.7444907796698861,0.12339546259307396,1.1302230530451878,0.0,0.0,0.0,-0.021047937815050197,"(0.0, 0.0, 0.0, 0.0, 0.0, 0.0, 0.0, 0.0, 0.0, 0.0, 0.0, 0.0, 0.0, 0.0, 0.0)"
