time,.header.seq,.header.stamp.secs,.header.stamp.nsecs,.header.frame_id,.pose.position.x,.pose.position.y,.pose.position.z,.pose.orientation.x,.pose.orientation.y,.pose.orientation.z,.pose.orientation.w,.velocity.linear.x,.velocity.linear.y,.velocity.linear.z,.velocity.angular.x,.velocity.angular.y,.velocity.angular.z,.covariance
2023/03/04/12:57:29.429641,112122,1668507678,571567873,,-2.769616756903144,-5.51913555933624,0.0,0.0,0.0,-0.6489370694538884,-0.7608420860392774,0.0008657337124296238,0.005418895740597169,0.0,0.0,0.0,6.647776152017361e-05,"(0.0, 0.0, 0.0, 0.0, 0.0, 0.0, 0.0, 0.0, 0.0, 0.0, 0.0, 0.0, 0.0, 0.0, 0.0)"
2023/03/04/12:57:29.429734,112123,1668507678,581057467,,-2.769528076932435,-5.518955911128853,0.0,0.0,0.0,-0.6489357360293057,-0.7608432233411186,0.0008823611306401004,0.005522847644537223,0.0,0.0,0.0,6.775514674340821e-05,"(0.0, 0.0, 0.0, 0.0, 0.0, 0.0, 0.0, 0.0, 0.0, 0.0, 0.0, 0.0, 0.0, 0.0, 0.0)"
2023/03/04/12:57:29.429774,112124,1668507678,591130316,,-2.7695190983947264,-5.518901223368078,0.0,0.0,0.0,-0.6489360114314717,-0.7608429884459821,0.0008992465921488919,0.00562856276123845,0.0,0.0,0.0,6.905448901469424e-05,"(0.0, 0.0, 0.0, 0.0, 0.0, 0.0, 0.0, 0.0, 0.0, 0.0, 0.0, 0.0, 0.0, 0.0, 0.0)"
2023/03/04/12:57:29.429827,112125,1668507678,601315439,,-2.7694303955938633,-5.518721056434397,0.0,0.0,0.0,-0.6489349030823041,-0.7608439337745689,0.0009166573566734934,0.00573743289076358,0.0,0.0,0.0,7.039319409162157e-05,"(0.0, 0.0, 0.0, 0.0, 0.0, 0.0, 0.0, 0.0, 0.0, 0.0, 0.0, 0.0, 0.0, 0.0, 0.0)"
2023/03/04/12:57:29.429917,112126,1668507678,611318390,,-2.7694652955544075,-5.518957135459638,0.0,0.0,0.0,-0.6489349563700195,-0.760843888324695,0.000810743946944218,0.005074516814457255,0.0,0.0,0.0,6.225825897323474e-05,"(0.0, 0.0, 0.0, 0.0, 0.0, 0.0, 0.0, 0.0, 0.0, 0.0, 0.0, 0.0, 0.0, 0.0, 0.0)"
2023/03/04/12:57:29.433287,112127,1668507678,621376310,,-2.769380445533858,-5.51880135452562,0.0,0.0,0.0,-0.6489339784538022,-0.7608447224027517,0.0008191283182547129,0.005126910727157952,0.0,0.0,0.0,6.28960825414546e-05,"(0.0, 0.0, 0.0, 0.0, 0.0, 0.0, 0.0, 0.0, 0.0, 0.0, 0.0, 0.0, 0.0, 0.0, 0.0)"
2023/03/04/12:57:29.443071,112128,1668507678,631160274,,-2.7693726748039236,-5.518754359767706,0.0,0.0,0.0,-0.6489342317507802,-0.7608445063625187,0.0008337767813792618,0.005218617521276414,0.0,0.0,0.0,6.402147539607123e-05,"(0.0, 0.0, 0.0, 0.0, 0.0, 0.0, 0.0, 0.0, 0.0, 0.0, 0.0, 0.0, 0.0, 0.0, 0.0)"
2023/03/04/12:57:29.472658,112129,1668507678,641176748,,-2.7692856627437465,-5.518582598092234,0.0,0.0,0.0,-0.6489334585451835,-0.7608451658390074,0.0008510253280014628,0.005326506863187468,0.0,0.0,0.0,6.53445640415387e-05,"(0.0, 0.0, 0.0, 0.0, 0.0, 0.0, 0.0, 0.0, 0.0, 0.0, 0.0, 0.0, 0.0, 0.0, 0.0)"
2023/03/04/12:57:29.472711,112130,1668507678,651060031,,-2.76927710151404,-5.518530592560589,0.0,0.0,0.0,-0.6489337258558419,-0.7608449378466384,0.0008688403221187727,0.0054380341681334625,0.0,0.0,0.0,6.671252242079862e-05,"(0.0, 0.0, 0.0, 0.0, 0.0, 0.0, 0.0, 0.0, 0.0, 0.0, 0.0, 0.0, 0.0, 0.0, 0.0)"
2023/03/04/12:57:29.473536,112131,1668507678,661195327,,-2.7691904545008823,-5.5183579020025455,0.0,0.0,0.0,-0.6489330125896751,-0.7608455461992852,0.0008885849785246268,0.0055615481910406914,0.0,0.0,0.0,6.822646938878706e-05,"(0.0, 0.0, 0.0, 0.0, 0.0, 0.0, 0.0, 0.0, 0.0, 0.0, 0.0, 0.0, 0.0, 0.0, 0.0)"
2023/03/04/12:57:29.510077,112132,1668507678,671164115,,-2.769184198428352,-5.518321386236035,0.0,0.0,0.0,-0.6489332790075159,-0.7608453189686807,0.0009008660530510116,0.005638439328117393,0.0,0.0,0.0,6.916806621502419e-05,"(0.0, 0.0, 0.0, 0.0, 0.0, 0.0, 0.0, 0.0, 0.0, 0.0, 0.0, 0.0, 0.0, 0.0, 0.0)"
2023/03/04/12:57:29.510168,112133,1668507678,681215419,,-2.769097877283928,-5.51814732646356,0.0,0.0,0.0,-0.6489326391671213,-0.7608458646950739,0.0009187315833517573,0.005750195992577074,0.0,0.0,0.0,7.054206940341116e-05,"(0.0, 0.0, 0.0, 0.0, 0.0, 0.0, 0.0, 0.0, 0.0, 0.0, 0.0, 0.0, 0.0, 0.0, 0.0)"
2023/03/04/12:57:29.510227,112134,1668507678,691330800,,-2.769132582344398,-5.518381996526487,0.0,0.0,0.0,-0.6489326899916704,-0.760845821346332,0.0008104898153102732,0.005072732198353362,0.0,0.0,0.0,6.22325901509086e-05,"(0.0, 0.0, 0.0, 0.0, 0.0, 0.0, 0.0, 0.0, 0.0, 0.0, 0.0, 0.0, 0.0, 0.0, 0.0)"
2023/03/04/12:57:29.532347,112135,1668507678,701302851,,-2.7690479624879614,-5.5182158891590145,0.0,0.0,0.0,-0.6489321114380002,-0.7608463147999199,0.0008230747382112542,0.005151449026154457,0.0,0.0,0.0,6.319737090211846e-05,"(0.0, 0.0, 0.0, 0.0, 0.0, 0.0, 0.0, 0.0, 0.0, 0.0, 0.0, 0.0, 0.0, 0.0, 0.0)"
2023/03/04/12:57:29.532396,112136,1668507678,711300729,,-2.7690399777840304,-5.518167576769922,0.0,0.0,0.0,-0.6489323698742688,-0.7608460943774142,0.0008397201305075697,0.005255651898696561,0.0,0.0,0.0,6.447442168178563e-05,"(0.0, 0.0, 0.0, 0.0, 0.0, 0.0, 0.0, 0.0, 0.0, 0.0, 0.0, 0.0, 0.0, 0.0, 0.0)"
2023/03/04/12:57:29.532986,112137,1668507678,721176685,,-2.7689585801154424,-5.518018692070546,0.0,0.0,0.0,-0.6489317697806535,-0.7608466062021628,0.0008471574843724729,0.005302147227501183,0.0,0.0,0.0,6.504760983827537e-05,"(0.0, 0.0, 0.0, 0.0, 0.0, 0.0, 0.0, 0.0, 0.0, 0.0, 0.0, 0.0, 0.0, 0.0, 0.0)"
2023/03/04/12:57:29.543260,112138,1668507678,731315507,,-2.768949932604062,-5.5179659838278425,0.0,0.0,0.0,-0.6489320320069787,-0.7608463825472876,0.000862250748180545,0.00539663607443579,0.0,0.0,0.0,6.620986641737822e-05,"(0.0, 0.0, 0.0, 0.0, 0.0, 0.0, 0.0, 0.0, 0.0, 0.0, 0.0, 0.0, 0.0, 0.0, 0.0)"
2023/03/04/12:57:29.563871,112139,1668507678,741396124,,-2.768866601099594,-5.517800608048513,0.0,0.0,0.0,-0.6489315217621082,-0.760846817738968,0.0008800619068507226,0.005508064745236557,0.0,0.0,0.0,6.757707428216703e-05,"(0.0, 0.0, 0.0, 0.0, 0.0, 0.0, 0.0, 0.0, 0.0, 0.0, 0.0, 0.0, 0.0, 0.0, 0.0)"
2023/03/04/12:57:29.563918,112140,1668507678,751061039,,-2.7688578809067748,-5.517747694046103,0.0,0.0,0.0,-0.6489317978374112,-0.760846582272343,0.0008976437118536247,0.0056181305824344495,0.0,0.0,0.0,6.892791163522418e-05,"(0.0, 0.0, 0.0, 0.0, 0.0, 0.0, 0.0, 0.0, 0.0, 0.0, 0.0, 0.0, 0.0, 0.0, 0.0)"
2023/03/04/12:57:29.573216,112141,1668507678,761195883,,-2.7687751913007674,-5.517582111592939,0.0,0.0,0.0,-0.6489312917790674,-0.7608470138930368,0.0009160944269282725,0.005733560102504285,0.0,0.0,0.0,7.034518440973945e-05,"(0.0, 0.0, 0.0, 0.0, 0.0, 0.0, 0.0, 0.0, 0.0, 0.0, 0.0, 0.0, 0.0, 0.0, 0.0)"
2023/03/04/12:57:29.591149,112142,1668507678,771363741,,-2.768812796041177,-5.5178362715758515,0.0,0.0,0.0,-0.6489313406752664,-0.7608469721891528,0.0008086816774326544,0.0050613001129097964,0.0,0.0,0.0,6.208789258385259e-05,"(0.0, 0.0, 0.0, 0.0, 0.0, 0.0, 0.0, 0.0, 0.0, 0.0, 0.0, 0.0, 0.0, 0.0, 0.0)"
2023/03/04/12:57:29.593401,112143,1668507678,781340899,,-2.768731974592146,-5.517679450529747,0.0,0.0,0.0,-0.6489308698007602,-0.7608473738008359,0.0008292600429936361,0.005190052801018184,0.0,0.0,0.0,6.365554813764192e-05,"(0.0, 0.0, 0.0, 0.0, 0.0, 0.0, 0.0, 0.0, 0.0, 0.0, 0.0, 0.0, 0.0, 0.0, 0.0)"
2023/03/04/12:57:29.603407,112144,1668507678,791336298,,-2.768723960002653,-5.517630961787561,0.0,0.0,0.0,-0.6489311293781987,-0.760847152405748,0.0008477688418492489,0.005305916231389618,0.0,0.0,0.0,6.507419121694611e-05,"(0.0, 0.0, 0.0, 0.0, 0.0, 0.0, 0.0, 0.0, 0.0, 0.0, 0.0, 0.0, 0.0, 0.0, 0.0)"
2023/03/04/12:57:29.613432,112145,1668507678,801335361,,-2.7686434450024393,-5.517471692285246,0.0,0.0,0.0,-0.6489306595495962,-0.7608475531251488,0.0008669399752637425,0.005425859263304589,0.0,0.0,0.0,6.65438931447968e-05,"(0.0, 0.0, 0.0, 0.0, 0.0, 0.0, 0.0, 0.0, 0.0, 0.0, 0.0, 0.0, 0.0, 0.0, 0.0)"
2023/03/04/12:57:29.623397,112146,1668507678,811357232,,-2.7686349316586485,-5.517420076395997,0.0,0.0,0.0,-0.6489309307329129,-0.7608473218314666,0.0008847640924099418,0.0055374392092863165,0.0,0.0,0.0,6.791321266162447e-05,"(0.0, 0.0, 0.0, 0.0, 0.0, 0.0, 0.0, 0.0, 0.0, 0.0, 0.0, 0.0, 0.0, 0.0, 0.0)"
2023/03/04/12:57:29.633430,112147,1668507678,821393480,,-2.7685577318247234,-5.517278118463739,0.0,0.0,0.0,-0.6489304031812878,-0.7608477717828787,0.0008911533925645408,0.005577378035079473,0.0,0.0,0.0,6.840913796812725e-05,"(0.0, 0.0, 0.0, 0.0, 0.0, 0.0, 0.0, 0.0, 0.0, 0.0, 0.0, 0.0, 0.0, 0.0, 0.0)"
2023/03/04/12:57:29.643334,112148,1668507678,831327101,,-2.7685487312486896,-5.517223216659167,0.0,0.0,0.0,-0.6489306741804065,-0.7608475406464578,0.0009053254076307496,0.005666101001236668,0.0,0.0,0.0,6.95038579136733e-05,"(0.0, 0.0, 0.0, 0.0, 0.0, 0.0, 0.0, 0.0, 0.0, 0.0, 0.0, 0.0, 0.0, 0.0, 0.0)"
2023/03/04/12:57:29.659051,112149,1668507678,841216656,,-2.768469288022062,-5.5170626422761275,0.0,0.0,0.0,-0.6489302210575213,-0.7608479271170004,0.0009243849521901702,0.005785343499173048,0.0,0.0,0.0,7.09681681076295e-05,"(0.0, 0.0, 0.0, 0.0, 0.0, 0.0, 0.0, 0.0, 0.0, 0.0, 0.0, 0.0, 0.0, 0.0, 0.0)"
2023/03/04/12:57:29.663218,112150,1668507678,851166615,,-2.7685043840981014,-5.517300043790705,0.0,0.0,0.0,-0.6489302773809088,-0.7608478790785559,0.0008180356956310737,0.005119752306493402,0.0,0.0,0.0,6.280094172244049e-05,"(0.0, 0.0, 0.0, 0.0, 0.0, 0.0, 0.0, 0.0, 0.0, 0.0, 0.0, 0.0, 0.0, 0.0, 0.0)"
2023/03/04/12:57:29.673172,112151,1668507678,861197108,,-2.7684266203690533,-5.517146716603825,0.0,0.0,0.0,-0.6489298287960841,-0.7608482616781648,0.0008336047041076282,0.00521715290540807,0.0,0.0,0.0,6.399156394655638e-05,"(0.0, 0.0, 0.0, 0.0, 0.0, 0.0, 0.0, 0.0, 0.0, 0.0, 0.0, 0.0, 0.0, 0.0, 0.0)"
2023/03/04/12:57:29.714689,112152,1668507678,871370508,,-2.7684210759687695,-5.517114594773265,0.0,0.0,0.0,-0.6489300757473028,-0.7608480510526394,0.0008435810179175473,0.005279612115719474,0.0,0.0,0.0,6.475645054363827e-05,"(0.0, 0.0, 0.0, 0.0, 0.0, 0.0, 0.0, 0.0, 0.0, 0.0, 0.0, 0.0, 0.0, 0.0, 0.0)"
2023/03/04/12:57:29.714731,112153,1668507678,881193540,,-2.76834395827233,-5.516961393172667,0.0,0.0,0.0,-0.648929640635293,-0.7608484221610435,0.0008611251466894372,0.00538937373649985,0.0,0.0,0.0,6.61026681699041e-05,"(0.0, 0.0, 0.0, 0.0, 0.0, 0.0, 0.0, 0.0, 0.0, 0.0, 0.0, 0.0, 0.0, 0.0, 0.0)"
2023/03/04/12:57:29.714774,112154,1668507678,891131456,,-2.7683351097215327,-5.516907419372227,0.0,0.0,0.0,-0.6489299073293269,-0.7608481946969128,0.0008768299928665809,0.005487687609567049,0.0,0.0,0.0,6.731252607569861e-05,"(0.0, 0.0, 0.0, 0.0, 0.0, 0.0, 0.0, 0.0, 0.0, 0.0, 0.0, 0.0, 0.0, 0.0, 0.0)"
2023/03/04/12:57:29.714831,112155,1668507678,901331346,,-2.7682583232554325,-5.516752059124417,0.0,0.0,0.0,-0.6489294668998896,-0.7608485703403963,0.0008956670433997439,0.005605538649000203,0.0,0.0,0.0,6.875897906867114e-05,"(0.0, 0.0, 0.0, 0.0, 0.0, 0.0, 0.0, 0.0, 0.0, 0.0, 0.0, 0.0, 0.0, 0.0, 0.0)"
2023/03/04/12:57:29.722991,112156,1668507678,911136290,,-2.768249340967235,-5.516697483384384,0.0,0.0,0.0,-0.6489297480259136,-0.7608483305672847,0.0009139996451609794,0.005720300500627961,0.0,0.0,0.0,7.016791406427724e-05,"(0.0, 0.0, 0.0, 0.0, 0.0, 0.0, 0.0, 0.0, 0.0, 0.0, 0.0, 0.0, 0.0, 0.0, 0.0)"
2023/03/04/12:57:29.733504,112157,1668507678,921400342,,-2.7681762648412223,-5.516562075168016,0.0,0.0,0.0,-0.6489292397974553,-0.7608487640365178,0.0009173847986494849,0.005741437378297284,0.0,0.0,0.0,7.043719443455902e-05,"(0.0, 0.0, 0.0, 0.0, 0.0, 0.0, 0.0, 0.0, 0.0, 0.0, 0.0, 0.0, 0.0, 0.0, 0.0)"
2023/03/04/12:57:29.743413,112158,1668507678,931461879,,-2.768210950401572,-5.516796716694053,0.0,0.0,0.0,-0.648929296668405,-0.7608487155311817,0.0008120980004266407,0.00508250659383047,0.0,0.0,0.0,6.235129827164616e-05,"(0.0, 0.0, 0.0, 0.0, 0.0, 0.0, 0.0, 0.0, 0.0, 0.0, 0.0, 0.0, 0.0, 0.0, 0.0)"
2023/03/04/12:57:29.753093,112159,1668507678,941181941,,-2.768136531407883,-5.5166495256142145,0.0,0.0,0.0,-0.648928885024014,-0.7608490666232627,0.0008273937707419747,0.005178199045126387,0.0,0.0,0.0,6.352068522334531e-05,"(0.0, 0.0, 0.0, 0.0, 0.0, 0.0, 0.0, 0.0, 0.0, 0.0, 0.0, 0.0, 0.0, 0.0, 0.0)"
2023/03/04/12:57:29.762986,112160,1668507678,951053891,,-2.768128446083788,-5.516600477522908,0.0,0.0,0.0,-0.6489291409062081,-0.7608488483810242,0.0008428306678459474,0.005274832800221988,0.0,0.0,0.0,6.47068043811243e-05,"(0.0, 0.0, 0.0, 0.0, 0.0, 0.0, 0.0, 0.0, 0.0, 0.0, 0.0, 0.0, 0.0, 0.0, 0.0)"
2023/03/04/12:57:29.773253,112161,1668507678,961343714,,-2.768054605249202,-5.5164528643563155,0.0,0.0,0.0,-0.6489287200600203,-0.7608492073211772,0.0008587510708005977,0.005374432049229885,0.0,0.0,0.0,6.593017919275506e-05,"(0.0, 0.0, 0.0, 0.0, 0.0, 0.0, 0.0, 0.0, 0.0, 0.0, 0.0, 0.0, 0.0, 0.0, 0.0)"
2023/03/04/12:57:29.783144,112162,1668507678,971170699,,-2.768048714668508,-5.516418425335126,0.0,0.0,0.0,-0.6489289687091071,-0.7608489952481601,0.0008645369201119843,0.005410665070366429,0.0,0.0,0.0,6.637955322445278e-05,"(0.0, 0.0, 0.0, 0.0, 0.0, 0.0, 0.0, 0.0, 0.0, 0.0, 0.0, 0.0, 0.0, 0.0, 0.0)"
2023/03/04/12:57:29.793141,112163,1668507678,981202944,,-2.767975502419071,-5.5162708797168785,0.0,0.0,0.0,-0.6489285428538024,-0.7608493584604253,0.0008823829467322315,0.005522313941640514,0.0,0.0,0.0,6.774928490357367e-05,"(0.0, 0.0, 0.0, 0.0, 0.0, 0.0, 0.0, 0.0, 0.0, 0.0, 0.0, 0.0, 0.0, 0.0, 0.0)"
2023/03/04/12:57:29.803411,112164,1668507678,991296714,,-2.767966474035486,-5.5162159075727715,0.0,0.0,0.0,-0.6489288193504601,-0.7608491226362937,0.0009008386838213141,0.005637843804065316,0.0,0.0,0.0,6.916710979204409e-05,"(0.0, 0.0, 0.0, 0.0, 0.0, 0.0, 0.0, 0.0, 0.0, 0.0, 0.0, 0.0, 0.0, 0.0, 0.0)"
2023/03/04/12:57:29.813151,112165,1668507679,1163811,,-2.7678937156932584,-5.5160671734702,0.0,0.0,0.0,-0.6489283826490635,-0.7608494950990443,0.0009180699237750404,0.005745642133330815,0.0,0.0,0.0,7.049259095234064e-05,"(0.0, 0.0, 0.0, 0.0, 0.0, 0.0, 0.0, 0.0, 0.0, 0.0, 0.0, 0.0, 0.0, 0.0, 0.0)"
2023/03/04/12:57:29.829255,112166,1668507679,11308703,,-2.7679286034860553,-5.516303091285843,0.0,0.0,0.0,-0.6489284364143223,-0.7608494492426625,0.0008121580787273991,0.005082808823144528,0.0,0.0,0.0,6.235875886959726e-05,"(0.0, 0.0, 0.0, 0.0, 0.0, 0.0, 0.0, 0.0, 0.0, 0.0, 0.0, 0.0, 0.0, 0.0, 0.0)"
2023/03/04/12:57:29.869121,112167,1668507679,21241726,,-2.7678597868013233,-5.516176976779522,0.0,0.0,0.0,-0.6489279755778486,-0.7608498422898141,0.0008194350519221983,0.0051283111488826276,0.0,0.0,0.0,6.291366762851646e-05,"(0.0, 0.0, 0.0, 0.0, 0.0, 0.0, 0.0, 0.0, 0.0, 0.0, 0.0, 0.0, 0.0, 0.0, 0.0)"
2023/03/04/12:57:29.869187,112168,1668507679,31092293,,-2.767851904720461,-5.516129289779439,0.0,0.0,0.0,-0.6489282311931777,-0.760849624275713,0.000835849423502225,0.005231060585920976,0.0,0.0,0.0,6.417261125762749e-05,"(0.0, 0.0, 0.0, 0.0, 0.0, 0.0, 0.0, 0.0, 0.0, 0.0, 0.0, 0.0, 0.0, 0.0, 0.0)"
2023/03/04/12:57:29.869224,112169,1668507679,41366441,,-2.767781363826255,-5.515988330239974,0.0,0.0,0.0,-0.6489278308640262,-0.760849965716047,0.0008528251764587305,0.0053372651955569525,0.0,0.0,0.0,6.547499675248181e-05,"(0.0, 0.0, 0.0, 0.0, 0.0, 0.0, 0.0, 0.0, 0.0, 0.0, 0.0, 0.0, 0.0, 0.0, 0.0)"
2023/03/04/12:57:29.869253,112170,1668507679,51166148,,-2.767772838821491,-5.515936560003961,0.0,0.0,0.0,-0.6489280980679741,-0.7608497378181067,0.0008705246110448765,0.005448058736790088,0.0,0.0,0.0,6.68339898579197e-05,"(0.0, 0.0, 0.0, 0.0, 0.0, 0.0, 0.0, 0.0, 0.0, 0.0, 0.0, 0.0, 0.0, 0.0, 0.0)"
2023/03/04/12:57:29.873142,112171,1668507679,61203138,,-2.7677027475480234,-5.51579437123343,0.0,0.0,0.0,-0.6489276714886101,-0.760850101647079,0.0008884891486028171,0.005560447310641402,0.0,0.0,0.0,6.821320132044379e-05,"(0.0, 0.0, 0.0, 0.0, 0.0, 0.0, 0.0, 0.0, 0.0, 0.0, 0.0, 0.0, 0.0, 0.0, 0.0)"
2023/03/04/12:57:29.883244,112172,1668507679,71173839,,-2.767696664578468,-5.515758984641124,0.0,0.0,0.0,-0.6489279368069085,-0.7608498753575037,0.0008987482830896442,0.005624677409876854,0.0,0.0,0.0,6.900128836176528e-05,"(0.0, 0.0, 0.0, 0.0, 0.0, 0.0, 0.0, 0.0, 0.0, 0.0, 0.0, 0.0, 0.0, 0.0, 0.0)"
2023/03/04/12:57:29.893310,112173,1668507679,81195035,,-2.76752629433419,-5.5156197703016066,0.0,0.0,0.0,-0.648935181403326,-0.7608436963904166,0.0009141944972311458,0.005722044524671224,0.0,0.0,0.0,7.020024624992124e-05,"(0.0, 0.0, 0.0, 0.0, 0.0, 0.0, 0.0, 0.0, 0.0, 0.0, 0.0, 0.0, 0.0, 0.0, 0.0)"
2023/03/04/12:57:29.947447,112174,1668507679,91138820,,-2.767561113227119,-5.51585511173608,0.0,0.0,0.0,-0.6489352312208222,-0.7608436539003122,0.0008071597544255829,0.005052106471448486,0.0,0.0,0.0,6.198129345352952e-05,"(0.0, 0.0, 0.0, 0.0, 0.0, 0.0, 0.0, 0.0, 0.0, 0.0, 0.0, 0.0, 0.0, 0.0, 0.0)"
2023/03/04/12:57:29.947493,112175,1668507679,101198197,,-2.7673996554354554,-5.515721921247061,0.0,0.0,0.0,-0.648940347824899,-0.7608392898404361,0.000817636888625965,0.005118125931423171,0.0,0.0,0.0,6.27918534635913e-05,"(0.0, 0.0, 0.0, 0.0, 0.0, 0.0, 0.0, 0.0, 0.0, 0.0, 0.0, 0.0, 0.0, 0.0, 0.0)"
2023/03/04/12:57:29.947535,112176,1668507679,111106485,,-2.7673915717775297,-5.515672873594491,0.0,0.0,0.0,-0.6489406041963349,-0.7608390711742502,0.0008345700563542289,0.00522414434254611,0.0,0.0,0.0,6.409094961517502e-05,"(0.0, 0.0, 0.0, 0.0, 0.0, 0.0, 0.0, 0.0, 0.0, 0.0, 0.0, 0.0, 0.0, 0.0, 0.0)"
2023/03/04/12:57:29.947560,112177,1668507679,121407538,,-2.7672382732554444,-5.515555136641374,0.0,0.0,0.0,-0.6489442176548016,-0.7608359891411536,0.0008446979540753524,0.005287864207594971,0.0,0.0,0.0,6.487139793280026e-05,"(0.0, 0.0, 0.0, 0.0, 0.0, 0.0, 0.0, 0.0, 0.0, 0.0, 0.0, 0.0, 0.0, 0.0, 0.0)"
2023/03/04/12:57:29.947605,112178,1668507679,131100078,,-2.7672297814986004,-5.515503286216584,0.0,0.0,0.0,-0.6489444722367848,-0.7608357719990044,0.0008564241400313303,0.0053612939288166855,0.0,0.0,0.0,6.57789188208613e-05,"(0.0, 0.0, 0.0, 0.0, 0.0, 0.0, 0.0, 0.0, 0.0, 0.0, 0.0, 0.0, 0.0, 0.0, 0.0)"
2023/03/04/12:57:29.953037,112179,1668507679,141082819,,-2.7670794247967545,-5.515367167123134,0.0,0.0,0.0,-0.6489467758577172,-0.7608338071509925,0.0008683384118428855,0.005436089696518907,0.0,0.0,0.0,6.670365073330654e-05,"(0.0, 0.0, 0.0, 0.0, 0.0, 0.0, 0.0, 0.0, 0.0, 0.0, 0.0, 0.0, 0.0, 0.0, 0.0)"
2023/03/04/12:57:29.967969,112180,1668507679,151060768,,-2.7670707791420255,-5.515314557015712,0.0,0.0,0.0,-0.648947043472871,-0.7608335788908239,0.000882743628285098,0.005526296141787946,0.0,0.0,0.0,6.781401351256003e-05,"(0.0, 0.0, 0.0, 0.0, 0.0, 0.0, 0.0, 0.0, 0.0, 0.0, 0.0, 0.0, 0.0, 0.0, 0.0)"
2023/03/04/12:57:29.993740,112181,1668507679,161354355,,-2.766924474123424,-5.51517956462872,0.0,0.0,0.0,-0.6489485408748139,-0.7608323016910165,0.000897351277786808,0.005617887309061195,0.0,0.0,0.0,6.894183086893466e-05,"(0.0, 0.0, 0.0, 0.0, 0.0, 0.0, 0.0, 0.0, 0.0, 0.0, 0.0, 0.0, 0.0, 0.0, 0.0)"
2023/03/04/12:57:29.993771,112182,1668507679,171174439,,-2.766961019540369,-5.515426253958808,0.0,0.0,0.0,-0.6489485786374856,-0.7608322694815115,0.000785461188930814,0.004917400093514963,0.0,0.0,0.0,6.0346857221800245e-05,"(0.0, 0.0, 0.0, 0.0, 0.0, 0.0, 0.0, 0.0, 0.0, 0.0, 0.0, 0.0, 0.0, 0.0, 0.0)"
2023/03/04/12:57:29.993814,112183,1668507679,181200952,,-2.7668189903279243,-5.515298960463506,0.0,0.0,0.0,-0.6489495086148942,-0.7608314762603393,0.000803778406776856,0.005032154490217478,0.0,0.0,0.0,6.174365771184603e-05,"(0.0, 0.0, 0.0, 0.0, 0.0, 0.0, 0.0, 0.0, 0.0, 0.0, 0.0, 0.0, 0.0, 0.0, 0.0)"
2023/03/04/12:57:30.003261,112184,1668507679,191339735,,-2.766810941988402,-5.515249935589852,0.0,0.0,0.0,-0.6489497548540709,-0.7608312662311146,0.0008162973006627151,0.005110551817959381,0.0,0.0,0.0,6.27089469940989e-05,"(0.0, 0.0, 0.0, 0.0, 0.0, 0.0, 0.0, 0.0, 0.0, 0.0, 0.0, 0.0, 0.0, 0.0, 0.0)"
2023/03/04/12:57:30.013329,112185,1668507679,201362410,,-2.766671083418309,-5.515118630537276,0.0,0.0,0.0,-0.6489502317412829,-0.7608308594707074,0.0008291353175630836,0.005190967930188019,0.0,0.0,0.0,6.36997489394676e-05,"(0.0, 0.0, 0.0, 0.0, 0.0, 0.0, 0.0, 0.0, 0.0, 0.0, 0.0, 0.0, 0.0, 0.0, 0.0)"
2023/03/04/12:57:30.023194,112186,1668507679,211170937,,-2.7666626783070685,-5.5150674046862385,0.0,0.0,0.0,-0.6489504881281799,-0.7608306407855805,0.0008434986951657487,0.005280915587394905,0.0,0.0,0.0,6.480589946278831e-05,"(0.0, 0.0, 0.0, 0.0, 0.0, 0.0, 0.0, 0.0, 0.0, 0.0, 0.0, 0.0, 0.0, 0.0, 0.0)"
2023/03/04/12:57:30.033186,112187,1668507679,221135076,,-2.7665276891089987,-5.514953930874777,0.0,0.0,0.0,-0.6489506192959914,-0.7608305289059774,0.0008506233885601963,0.005325533141763749,0.0,0.0,0.0,6.535578210991413e-05,"(0.0, 0.0, 0.0, 0.0, 0.0, 0.0, 0.0, 0.0, 0.0, 0.0, 0.0, 0.0, 0.0, 0.0, 0.0)"
2023/03/04/12:57:30.042978,112188,1668507679,231059295,,-2.766519277016126,-5.514902912426212,0.0,0.0,0.0,-0.6489508869920029,-0.7608303005745057,0.0008675172819825414,0.005431325980231191,0.0,0.0,0.0,6.66531116500469e-05,"(0.0, 0.0, 0.0, 0.0, 0.0, 0.0, 0.0, 0.0, 0.0, 0.0, 0.0, 0.0, 0.0, 0.0, 0.0)"
2023/03/04/12:57:30.059466,112189,1668507679,241203747,,-2.7663840110319913,-5.514772881692817,0.0,0.0,0.0,-0.6489508081928709,-0.7608303677862889,0.0008849572344402021,0.005540506138952144,0.0,0.0,0.0,6.799276736305664e-05,"(0.0, 0.0, 0.0, 0.0, 0.0, 0.0, 0.0, 0.0, 0.0, 0.0, 0.0, 0.0, 0.0, 0.0, 0.0)"
2023/03/04/12:57:30.063276,112190,1668507679,251166388,,-2.7664178079332453,-5.515001472761235,0.0,0.0,0.0,-0.648950864246523,-0.7608303199752826,0.0007839145772879422,0.0049079068092955196,0.0,0.0,0.0,6.022750394131364e-05,"(0.0, 0.0, 0.0, 0.0, 0.0, 0.0, 0.0, 0.0, 0.0, 0.0, 0.0, 0.0, 0.0, 0.0, 0.0)"
2023/03/04/12:57:30.096944,112191,1668507679,261378716,,-2.766285203379922,-5.514877729287315,0.0,0.0,0.0,-0.6489506315035648,-0.7608305184935239,0.0007997591682270717,0.005007086438757338,0.0,0.0,0.0,6.143705305207565e-05,"(0.0, 0.0, 0.0, 0.0, 0.0, 0.0, 0.0, 0.0, 0.0, 0.0, 0.0, 0.0, 0.0, 0.0, 0.0)"
2023/03/04/12:57:30.096994,112192,1668507679,271175301,,-2.766279941301718,-5.514847243735362,0.0,0.0,0.0,-0.6489508675950731,-0.760830317119134,0.0008076295706758534,0.005056381151931108,0.0,0.0,0.0,6.20413304330059e-05,"(0.0, 0.0, 0.0, 0.0, 0.0, 0.0, 0.0, 0.0, 0.0, 0.0, 0.0, 0.0, 0.0, 0.0, 0.0)"
2023/03/04/12:57:30.097042,112193,1668507679,281202839,,-2.766148949525143,-5.51472272396858,0.0,0.0,0.0,-0.6489505193156114,-0.76083061418426,0.0008226886763800824,0.005150632438899944,0.0,0.0,0.0,6.319807885253362e-05,"(0.0, 0.0, 0.0, 0.0, 0.0, 0.0, 0.0, 0.0, 0.0, 0.0, 0.0, 0.0, 0.0, 0.0, 0.0)"
2023/03/04/12:57:30.103425,112194,1668507679,291340877,,-2.766140598189989,-5.51467190477917,0.0,0.0,0.0,-0.6489507775645524,-0.7608303939107341,0.0008402424208089531,0.005260554638143885,0.0,0.0,0.0,6.454565997894934e-05,"(0.0, 0.0, 0.0, 0.0, 0.0, 0.0, 0.0, 0.0, 0.0, 0.0, 0.0, 0.0, 0.0, 0.0, 0.0)"
2023/03/04/12:57:30.113397,112195,1668507679,301341307,,-2.7660403227078345,-5.514539617058576,0.0,0.0,0.0,-0.6489400951206165,-0.7608395053786609,0.00085708402557216,0.005365028574260803,0.0,0.0,0.0,6.582912037456196e-05,"(0.0, 0.0, 0.0, 0.0, 0.0, 0.0, 0.0, 0.0, 0.0, 0.0, 0.0, 0.0, 0.0, 0.0, 0.0)"
2023/03/04/12:57:30.122917,112196,1668507679,311063651,,-2.7660316310036097,-5.514486726756396,0.0,0.0,0.0,-0.6489403637005093,-0.7608392762996996,0.0008734789540219723,0.005467679534719275,0.0,0.0,0.0,6.709028085573385e-05,"(0.0, 0.0, 0.0, 0.0, 0.0, 0.0, 0.0, 0.0, 0.0, 0.0, 0.0, 0.0, 0.0, 0.0, 0.0)"
2023/03/04/12:57:30.133463,112197,1668507679,321276732,,-2.76592806128027,-5.514375518868335,0.0,0.0,0.0,-0.648932118242154,-0.7608463089966009,0.0008807689078821026,0.005512545146890676,0.0,0.0,0.0,6.764435427529622e-05,"(0.0, 0.0, 0.0, 0.0, 0.0, 0.0, 0.0, 0.0, 0.0, 0.0, 0.0, 0.0, 0.0, 0.0, 0.0)"
2023/03/04/12:57:30.143144,112198,1668507679,331169122,,-2.7659612695952975,-5.514600178482935,0.0,0.0,0.0,-0.6489321743829544,-0.7608462611136437,0.0007785800162547365,0.004872971238062985,0.0,0.0,0.0,5.9797119026569746e-05,"(0.0, 0.0, 0.0, 0.0, 0.0, 0.0, 0.0, 0.0, 0.0, 0.0, 0.0, 0.0, 0.0, 0.0, 0.0)"
2023/03/04/12:57:30.153206,112199,1668507679,341205071,,-2.7658207051702393,-5.5144821774951165,0.0,0.0,0.0,-0.6489364874106966,-0.7608425824748946,0.0007949334985991384,0.0049756863824756276,0.0,0.0,0.0,6.104985163316844e-05,"(0.0, 0.0, 0.0, 0.0, 0.0, 0.0, 0.0, 0.0, 0.0, 0.0, 0.0, 0.0, 0.0, 0.0, 0.0)"
2023/03/04/12:57:30.168851,112200,1668507679,351064013,,-2.7658128979750565,-5.514434882622621,0.0,0.0,0.0,-0.6489367376719268,-0.760842369022465,0.0008115534049549832,0.005079735958480148,0.0,0.0,0.0,6.232439710898512e-05,"(0.0, 0.0, 0.0, 0.0, 0.0, 0.0, 0.0, 0.0, 0.0, 0.0, 0.0, 0.0, 0.0, 0.0, 0.0)"
2023/03/04/12:57:30.198768,112201,1668507679,361210941,,-2.7657069141264112,-5.514310698322778,0.0,0.0,0.0,-0.6489295267117733,-0.7608485193267014,0.0008273066336550384,0.005177709756604362,0.0,0.0,0.0,6.35273234485408e-05,"(0.0, 0.0, 0.0, 0.0, 0.0, 0.0, 0.0, 0.0, 0.0, 0.0, 0.0, 0.0, 0.0, 0.0, 0.0)"
2023/03/04/12:57:30.198810,112202,1668507679,371174590,,-2.765701186620514,-5.5142772222642895,0.0,0.0,0.0,-0.6489297685103005,-0.7608483130960914,0.0008346118628344489,0.005223450941214449,0.0,0.0,0.0,6.409089843067562e-05,"(0.0, 0.0, 0.0, 0.0, 0.0, 0.0, 0.0, 0.0, 0.0, 0.0, 0.0, 0.0, 0.0, 0.0, 0.0)"
2023/03/04/12:57:30.198861,112203,1668507679,381203520,,-2.7655910113805056,-5.514152902953397,0.0,0.0,0.0,-0.64892431296168,-0.7608529661158007,0.0008495665165230534,0.005316555872913134,0.0,0.0,0.0,6.523630787117956e-05,"(0.0, 0.0, 0.0, 0.0, 0.0, 0.0, 0.0, 0.0, 0.0, 0.0, 0.0, 0.0, 0.0, 0.0, 0.0)"
2023/03/04/12:57:30.203008,112204,1668507679,391096551,,-2.7655823745932646,-5.514100377640503,0.0,0.0,0.0,-0.6489245809572846,-0.7608527375447975,0.0008674378513761818,0.005428418568374495,0.0,0.0,0.0,6.660848956789524e-05,"(0.0, 0.0, 0.0, 0.0, 0.0, 0.0, 0.0, 0.0, 0.0, 0.0, 0.0, 0.0, 0.0, 0.0, 0.0)"
2023/03/04/12:57:30.213203,112205,1668507679,401213076,,-2.7654694791563688,-5.5139763273910765,0.0,0.0,0.0,-0.6489204177245325,-0.7608562883095719,0.0008813132566031302,0.005514863405341041,0.0,0.0,0.0,6.767501923559911e-05,"(0.0, 0.0, 0.0, 0.0, 0.0, 0.0, 0.0, 0.0, 0.0, 0.0, 0.0, 0.0, 0.0, 0.0, 0.0)"
2023/03/04/12:57:30.223385,112206,1668507679,411367576,,-2.765502974645842,-5.514202731723498,0.0,0.0,0.0,-0.6489204640707316,-0.7608562487817435,0.000776850241877827,0.004861184474065231,0.0,0.0,0.0,5.965652519210152e-05,"(0.0, 0.0, 0.0, 0.0, 0.0, 0.0, 0.0, 0.0, 0.0, 0.0, 0.0, 0.0, 0.0, 0.0, 0.0)"
2023/03/04/12:57:30.233298,112207,1668507679,421250136,,-2.765380038137671,-5.51436115498282,0.0,0.0,0.0,-0.6489213070847194,-0.7608555297896304,0.0007860787749668436,0.004919002494898102,0.0,0.0,0.0,6.03577146649368e-05,"(0.0, 0.0, 0.0, 0.0, 0.0, 0.0, 0.0, 0.0, 0.0, 0.0, 0.0, 0.0, 0.0, 0.0, 0.0)"
2023/03/04/12:57:30.243111,112208,1668507679,431162098,,-2.7653722898836666,-5.514314062169001,0.0,0.0,0.0,-0.6489215481018725,-0.7608553242299544,0.00079969653932473,0.0050042379858441,0.0,0.0,0.0,6.140471616274881e-05,"(0.0, 0.0, 0.0, 0.0, 0.0, 0.0, 0.0, 0.0, 0.0, 0.0, 0.0, 0.0, 0.0, 0.0, 0.0)"
2023/03/04/12:57:30.258164,112209,1668507679,441175848,,-2.7652496350250737,-5.514451931405851,0.0,0.0,0.0,-0.6489219179050908,-0.7608550088304463,0.0008133705236626876,0.005089837035212144,0.0,0.0,0.0,6.245679444880444e-05,"(0.0, 0.0, 0.0, 0.0, 0.0, 0.0, 0.0, 0.0, 0.0, 0.0, 0.0, 0.0, 0.0, 0.0, 0.0)"
2023/03/04/12:57:30.263236,112210,1668507679,451187454,,-2.7652414037660225,-5.514401863265417,0.0,0.0,0.0,-0.6489221713316417,-0.7608547926866385,0.0008292598673258177,0.005189290128146605,0.0,0.0,0.0,6.367758433091267e-05,"(0.0, 0.0, 0.0, 0.0, 0.0, 0.0, 0.0, 0.0, 0.0, 0.0, 0.0, 0.0, 0.0, 0.0, 0.0)"
2023/03/04/12:57:30.307795,112211,1668507679,461341910,,-2.76512066398539,-5.514535661118952,0.0,0.0,0.0,-0.6489222217848566,-0.7608547496558101,0.0008452835425088271,0.005289566574710338,0.0,0.0,0.0,6.490870312790111e-05,"(0.0, 0.0, 0.0, 0.0, 0.0, 0.0, 0.0, 0.0, 0.0, 0.0, 0.0, 0.0, 0.0, 0.0, 0.0)"
2023/03/04/12:57:30.307844,112212,1668507679,471178786,,-2.765114970508052,-5.514502527407717,0.0,0.0,0.0,-0.6489224692955269,-0.7608545385574013,0.0008520311912289697,0.005331813883589496,0.0,0.0,0.0,6.54297715304495e-05,"(0.0, 0.0, 0.0, 0.0, 0.0, 0.0, 0.0, 0.0, 0.0, 0.0, 0.0, 0.0, 0.0, 0.0, 0.0)"
2023/03/04/12:57:30.307876,112213,1668507679,481207037,,-2.764996307900363,-5.514634157594011,0.0,0.0,0.0,-0.648922285447048,-0.7608546953592256,0.0008664044931618913,0.005421741863517619,0.0,0.0,0.0,6.653619916184502e-05,"(0.0, 0.0, 0.0, 0.0, 0.0, 0.0, 0.0, 0.0, 0.0, 0.0, 0.0, 0.0, 0.0, 0.0, 0.0)"
2023/03/04/12:57:30.307902,112214,1668507679,491341393,,-2.7650289967018975,-5.514855292476744,0.0,0.0,0.0,-0.6489223406839488,-0.7608546482484451,0.0007673741670090494,0.004802039412181102,0.0,0.0,0.0,5.8930856785503805e-05,"(0.0, 0.0, 0.0, 0.0, 0.0, 0.0, 0.0, 0.0, 0.0, 0.0, 0.0, 0.0, 0.0, 0.0, 0.0)"
2023/03/04/12:57:30.313360,112215,1668507679,501205195,,-2.764912690710166,-5.514989166414889,0.0,0.0,0.0,-0.64892201130163,-0.7608549291739176,0.0007804801135061852,0.004884026074482907,0.0,0.0,0.0,5.993250004872359e-05,"(0.0, 0.0, 0.0, 0.0, 0.0, 0.0, 0.0, 0.0, 0.0, 0.0, 0.0, 0.0, 0.0, 0.0, 0.0)"
2023/03/04/12:57:30.323155,112216,1668507679,511177519,,-2.7649050392152064,-5.5149426973918025,0.0,0.0,0.0,-0.6489222510126859,-0.7608547247278081,0.0007938508988437911,0.004967716794483387,0.0,0.0,0.0,6.096058326966473e-05,"(0.0, 0.0, 0.0, 0.0, 0.0, 0.0, 0.0, 0.0, 0.0, 0.0, 0.0, 0.0, 0.0, 0.0, 0.0)"
2023/03/04/12:57:30.333139,112217,1668507679,521184284,,-2.764792472234758,-5.515089401436227,0.0,0.0,0.0,-0.6489217594766954,-0.7608551439516394,0.0007978762109374428,0.004992864772440397,0.0,0.0,0.0,6.127411941960757e-05,"(0.0, 0.0, 0.0, 0.0, 0.0, 0.0, 0.0, 0.0, 0.0, 0.0, 0.0, 0.0, 0.0, 0.0, 0.0)"
2023/03/04/12:57:30.343153,112218,1668507679,531171974,,-2.764784331655373,-5.515039875320153,0.0,0.0,0.0,-0.6489220102086708,-0.7608549301060865,0.0008136690423362013,0.005091713006814759,0.0,0.0,0.0,6.248683717648742e-05,"(0.0, 0.0, 0.0, 0.0, 0.0, 0.0, 0.0, 0.0, 0.0, 0.0, 0.0, 0.0, 0.0, 0.0, 0.0)"
2023/03/04/12:57:30.353339,112219,1668507679,541207680,,-2.764699901865196,-5.5151616540414645,0.0,0.0,0.0,-0.6489113486052778,-0.7608640231022096,0.0008297686375255431,0.005191526054023458,0.0,0.0,0.0,6.371211383517142e-05,"(0.0, 0.0, 0.0, 0.0, 0.0, 0.0, 0.0, 0.0, 0.0, 0.0, 0.0, 0.0, 0.0, 0.0, 0.0)"
2023/03/04/12:57:30.369066,112220,1668507679,551181319,,-2.764691143247578,-5.515108207320105,0.0,0.0,0.0,-0.6489116098803623,-0.7608638002707688,0.0008467165230373363,0.005297585449481059,0.0,0.0,0.0,6.501435475694964e-05,"(0.0, 0.0, 0.0, 0.0, 0.0, 0.0, 0.0, 0.0, 0.0, 0.0, 0.0, 0.0, 0.0, 0.0, 0.0)"
2023/03/04/12:57:30.373162,112221,1668507679,561213359,,-2.7645998867485164,-5.5152277577721405,0.0,0.0,0.0,-0.6489035504837399,-0.7608706737479086,0.0008618346558723482,0.005391441029279962,0.0,0.0,0.0,6.61692251157235e-05,"(0.0, 0.0, 0.0, 0.0, 0.0, 0.0, 0.0, 0.0, 0.0, 0.0, 0.0, 0.0, 0.0, 0.0, 0.0)"
2023/03/04/12:57:30.395400,112222,1668507679,571173979,,-2.7646349601286024,-5.515464556347746,0.0,0.0,0.0,-0.6489035876747737,-0.7608706420297785,0.0007546932420400945,0.004721191743543113,0.0,0.0,0.0,5.79449748764027e-05,"(0.0, 0.0, 0.0, 0.0, 0.0, 0.0, 0.0, 0.0, 0.0, 0.0, 0.0, 0.0, 0.0, 0.0, 0.0)"
2023/03/04/12:57:30.395445,112223,1668507679,581177186,,-2.7645399937904993,-5.515590000372543,0.0,0.0,0.0,-0.6488975044647504,-0.7608758300139513,0.0007659542165762757,0.0047911463682926946,0.0,0.0,0.0,5.8800498198884e-05,"(0.0, 0.0, 0.0, 0.0, 0.0, 0.0, 0.0, 0.0, 0.0, 0.0, 0.0, 0.0, 0.0, 0.0, 0.0)"
2023/03/04/12:57:30.403344,112224,1668507679,591336762,,-2.7645325475109743,-5.5155448421750535,0.0,0.0,0.0,-0.6488977396437099,-0.7608756294462874,0.0007773777443252444,0.0048626213500203375,0.0,0.0,0.0,5.9680151760967574e-05,"(0.0, 0.0, 0.0, 0.0, 0.0, 0.0, 0.0, 0.0, 0.0, 0.0, 0.0, 0.0, 0.0, 0.0, 0.0)"
2023/03/04/12:57:30.413307,112225,1668507679,601368351,,-2.764404658493004,-5.515673106749347,0.0,0.0,0.0,-0.6489033712225163,-0.7608708266296279,0.0007933023998161649,0.0049627038646026436,0.0,0.0,0.0,6.090562945095765e-05,"(0.0, 0.0, 0.0, 0.0, 0.0, 0.0, 0.0, 0.0, 0.0, 0.0, 0.0, 0.0, 0.0, 0.0, 0.0)"
2023/03/04/12:57:30.434141,112226,1668507679,611070798,,-2.764396832137908,-5.515625638795486,0.0,0.0,0.0,-0.6489036179760685,-0.7608706161875148,0.0008083072368408674,0.005056591460343337,0.0,0.0,0.0,6.205773306752233e-05,"(0.0, 0.0, 0.0, 0.0, 0.0, 0.0, 0.0, 0.0, 0.0, 0.0, 0.0, 0.0, 0.0, 0.0, 0.0)"
2023/03/04/12:57:30.434186,112227,1668507679,621246769,,-2.764277332041272,-5.51576757213352,0.0,0.0,0.0,-0.648907597713057,-0.7608672220764077,0.0008160485074109961,0.0051053617797276974,0.0,0.0,0.0,6.265590971120249e-05,"(0.0, 0.0, 0.0, 0.0, 0.0, 0.0, 0.0, 0.0, 0.0, 0.0, 0.0, 0.0, 0.0, 0.0, 0.0)"
2023/03/04/12:57:30.443188,112228,1668507679,631186976,,-2.764269204551742,-5.515718195581449,0.0,0.0,0.0,-0.6489078513812618,-0.7608670057347435,0.0008330356130525688,0.005211658787635639,0.0,0.0,0.0,6.395885949529388e-05,"(0.0, 0.0, 0.0, 0.0, 0.0, 0.0, 0.0, 0.0, 0.0, 0.0, 0.0, 0.0, 0.0, 0.0, 0.0)"
2023/03/04/12:57:30.459280,112229,1668507679,641229007,,-2.764181823758255,-5.515833730155367,0.0,0.0,0.0,-0.6489002694208973,-0.7608734719685573,0.0008518185036355335,0.0053284874323065255,0.0,0.0,0.0,6.53899266337226e-05,"(0.0, 0.0, 0.0, 0.0, 0.0, 0.0, 0.0, 0.0, 0.0, 0.0, 0.0, 0.0, 0.0, 0.0, 0.0)"
2023/03/04/12:57:30.463201,112230,1668507679,651175520,,-2.7642141961981186,-5.516052714020354,0.0,0.0,0.0,-0.6489003246378326,-0.7608734248775649,0.0007570517477709509,0.004735685433546415,0.0,0.0,0.0,5.811110927122954e-05,"(0.0, 0.0, 0.0, 0.0, 0.0, 0.0, 0.0, 0.0, 0.0, 0.0, 0.0, 0.0, 0.0, 0.0, 0.0)"
2023/03/04/12:57:30.492836,112231,1668507679,661371246,,-2.764123085795439,-5.516170414145523,0.0,0.0,0.0,-0.6488945025474934,-0.7608783901279107,0.0007706763208021298,0.004820439758905024,0.0,0.0,0.0,5.9146792871095316e-05,"(0.0, 0.0, 0.0, 0.0, 0.0, 0.0, 0.0, 0.0, 0.0, 0.0, 0.0, 0.0, 0.0, 0.0, 0.0)"
2023/03/04/12:57:30.492882,112232,1668507679,671181681,,-2.764117868030257,-5.516140069905418,0.0,0.0,0.0,-0.6488947288514162,-0.7608781971306886,0.0007777000276287311,0.004864390324888745,0.0,0.0,0.0,5.968700323680133e-05,"(0.0, 0.0, 0.0, 0.0, 0.0, 0.0, 0.0, 0.0, 0.0, 0.0, 0.0, 0.0, 0.0, 0.0, 0.0)"
2023/03/04/12:57:30.492958,112233,1668507679,681195405,,-2.764023746797346,-5.516257536111367,0.0,0.0,0.0,-0.6488903582471357,-0.7608819244625962,0.0007938230940391002,0.00496487166556597,0.0,0.0,0.0,6.0917748595625124e-05,"(0.0, 0.0, 0.0, 0.0, 0.0, 0.0, 0.0, 0.0, 0.0, 0.0, 0.0, 0.0, 0.0, 0.0, 0.0)"
2023/03/04/12:57:30.503155,112234,1668507679,691341253,,-2.764015809198966,-5.516209227406201,0.0,0.0,0.0,-0.6488906009175123,-0.7608817175099621,0.0008065744724142766,0.005044644277475827,0.0,0.0,0.0,6.190053440111761e-05,"(0.0, 0.0, 0.0, 0.0, 0.0, 0.0, 0.0, 0.0, 0.0, 0.0, 0.0, 0.0, 0.0, 0.0, 0.0)"
2023/03/04/12:57:30.513154,112235,1668507679,701207310,,-2.7639194896872077,-5.516322502804905,0.0,0.0,0.0,-0.6488872006340863,-0.7608846173062371,0.0008193367558686534,0.005124171015505287,0.0,0.0,0.0,6.288049164507886e-05,"(0.0, 0.0, 0.0, 0.0, 0.0, 0.0, 0.0, 0.0, 0.0, 0.0, 0.0, 0.0, 0.0, 0.0, 0.0)"
2023/03/04/12:57:30.523199,112236,1668507679,711194030,,-2.7639111509554115,-5.516271863552838,0.0,0.0,0.0,-0.6488874595314269,-0.7608843965168761,0.0008370213140046746,0.005234793931469554,0.0,0.0,0.0,6.423693141600884e-05,"(0.0, 0.0, 0.0, 0.0, 0.0, 0.0, 0.0, 0.0, 0.0, 0.0, 0.0, 0.0, 0.0, 0.0, 0.0)"
2023/03/04/12:57:30.533481,112237,1668507679,721393005,,-2.763816496826137,-5.516401141996903,0.0,0.0,0.0,-0.6488846773419813,-0.7608867691784322,0.0008470561591106193,0.005297304130367724,0.0,0.0,0.0,6.500283581569137e-05,"(0.0, 0.0, 0.0, 0.0, 0.0, 0.0, 0.0, 0.0, 0.0, 0.0, 0.0, 0.0, 0.0, 0.0, 0.0)"
2023/03/04/12:57:30.543097,112238,1668507679,731066720,,-2.763848623201266,-5.516618492359226,0.0,0.0,0.0,-0.6488847350121831,-0.760886719997247,0.0007516677589924719,0.004700770489406104,0.0,0.0,0.0,5.7680071672114e-05,"(0.0, 0.0, 0.0, 0.0, 0.0, 0.0, 0.0, 0.0, 0.0, 0.0, 0.0, 0.0, 0.0, 0.0, 0.0)"
2023/03/04/12:57:30.558279,112239,1668507679,741104696,,-2.7637511133551933,-5.516732488084799,0.0,0.0,0.0,-0.6488826598716443,-0.760888489673684,0.0007648771992437717,0.0047832121883565094,0.0,0.0,0.0,5.86872397883284e-05,"(0.0, 0.0, 0.0, 0.0, 0.0, 0.0, 0.0, 0.0, 0.0, 0.0, 0.0, 0.0, 0.0, 0.0, 0.0)"
2023/03/04/12:57:30.563093,112240,1668507679,751067467,,-2.7637435109346047,-5.5166863390904055,0.0,0.0,0.0,-0.6488828966685581,-0.7608882877341596,0.0007787305807803645,0.004869864702862314,0.0,0.0,0.0,5.975156712762139e-05,"(0.0, 0.0, 0.0, 0.0, 0.0, 0.0, 0.0, 0.0, 0.0, 0.0, 0.0, 0.0, 0.0, 0.0, 0.0)"
2023/03/04/12:57:30.573152,112241,1668507679,761056369,,-2.7636459639139477,-5.516798353056588,0.0,0.0,0.0,-0.6488811815274682,-0.7608897503972023,0.0007965564730608625,0.004981196566689601,0.0,0.0,0.0,6.111377731520006e-05,"(0.0, 0.0, 0.0, 0.0, 0.0, 0.0, 0.0, 0.0, 0.0, 0.0, 0.0, 0.0, 0.0, 0.0, 0.0)"
2023/03/04/12:57:30.587958,112242,1668507679,771176607,,-2.763640443328549,-5.516766075378167,0.0,0.0,0.0,-0.648881412464987,-0.7608895534553247,0.0008026477837153643,0.005019307587878226,0.0,0.0,0.0,6.158522375147259e-05,"(0.0, 0.0, 0.0, 0.0, 0.0, 0.0, 0.0, 0.0, 0.0, 0.0, 0.0, 0.0, 0.0, 0.0, 0.0)"
2023/03/04/12:57:30.593292,112243,1668507679,781353314,,-2.7635427702912105,-5.5168735915493725,0.0,0.0,0.0,-0.6488799607108444,-0.7608907914989463,0.0008156855467852346,0.005100713592252521,0.0,0.0,0.0,6.258798309278455e-05,"(0.0, 0.0, 0.0, 0.0, 0.0, 0.0, 0.0, 0.0, 0.0, 0.0, 0.0, 0.0, 0.0, 0.0, 0.0)"
2023/03/04/12:57:30.602974,112244,1668507679,791108405,,-2.763534434456532,-5.516822762251765,0.0,0.0,0.0,-0.6488802104372018,-0.7608905785347672,0.0008275737581856122,0.005175075742804423,0.0,0.0,0.0,6.350677307335013e-05,"(0.0, 0.0, 0.0, 0.0, 0.0, 0.0, 0.0, 0.0, 0.0, 0.0, 0.0, 0.0, 0.0, 0.0, 0.0)"
2023/03/04/12:57:30.613331,112245,1668507679,801342266,,-2.763437092481482,-5.51692757866803,0.0,0.0,0.0,-0.6488789560972581,-0.7608916482220925,0.0008393723909390805,0.005248745275276247,0.0,0.0,0.0,6.441718851220426e-05,"(0.0, 0.0, 0.0, 0.0, 0.0, 0.0, 0.0, 0.0, 0.0, 0.0, 0.0, 0.0, 0.0, 0.0, 0.0)"
2023/03/04/12:57:30.623252,112246,1668507679,811173416,,-2.7634691032011696,-5.517143955976977,0.0,0.0,0.0,-0.6488790056608057,-0.7608916059549113,0.0007427562353604093,0.004644591101968055,0.0,0.0,0.0,5.700259192698402e-05,"(0.0, 0.0, 0.0, 0.0, 0.0, 0.0, 0.0, 0.0, 0.0, 0.0, 0.0, 0.0, 0.0, 0.0, 0.0)"
2023/03/04/12:57:30.633389,112247,1668507679,821394330,,-2.763375354438209,-5.517267815681153,0.0,0.0,0.0,-0.6488778705113645,-0.7608925739949345,0.0007480314810448573,0.004677488677995106,0.0,0.0,0.0,5.7403032021982755e-05,"(0.0, 0.0, 0.0, 0.0, 0.0, 0.0, 0.0, 0.0, 0.0, 0.0, 0.0, 0.0, 0.0, 0.0, 0.0)"
2023/03/04/12:57:30.643100,112248,1668507679,831174417,,-2.7633678785313003,-5.517222363507779,0.0,0.0,0.0,-0.6488781005263092,-0.7608923778415506,0.000760055062615983,0.004752691329650644,0.0,0.0,0.0,5.832793750369153e-05,"(0.0, 0.0, 0.0, 0.0, 0.0, 0.0, 0.0, 0.0, 0.0, 0.0, 0.0, 0.0, 0.0, 0.0, 0.0)"
2023/03/04/12:57:30.653092,112249,1668507679,841240537,,-2.763272543678016,-5.517329398739063,0.0,0.0,0.0,-0.6488771567160456,-0.760893182708388,0.0007775189004235959,0.004861816898962795,0.0,0.0,0.0,5.966250543095107e-05,"(0.0, 0.0, 0.0, 0.0, 0.0, 0.0, 0.0, 0.0, 0.0, 0.0, 0.0, 0.0, 0.0, 0.0, 0.0)"
2023/03/04/12:57:30.662960,112250,1668507679,851084583,,-2.7632646495038538,-5.517281509525528,0.0,0.0,0.0,-0.6488774034945448,-0.7608929722596849,0.0007961923332466892,0.0049786023732320515,0.0,0.0,0.0,6.109168251469652e-05,"(0.0, 0.0, 0.0, 0.0, 0.0, 0.0, 0.0, 0.0, 0.0, 0.0, 0.0, 0.0, 0.0, 0.0, 0.0)"
2023/03/04/12:57:30.673072,112251,1668507679,861064316,,-2.7631695386303097,-5.517382844943193,0.0,0.0,0.0,-0.6488765128287589,-0.7608937318043759,0.0008155343828802124,0.005099471933894906,0.0,0.0,0.0,6.257134317763265e-05,"(0.0, 0.0, 0.0, 0.0, 0.0, 0.0, 0.0, 0.0, 0.0, 0.0, 0.0, 0.0, 0.0, 0.0, 0.0)"
2023/03/04/12:57:30.683194,112252,1668507679,871184650,,-2.763164094495745,-5.517351269756078,0.0,0.0,0.0,-0.6488767534979104,-0.7608935265659789,0.0008239318169757268,0.0051520013248397955,0.0,0.0,0.0,6.321648525821593e-05,"(0.0, 0.0, 0.0, 0.0, 0.0, 0.0, 0.0, 0.0, 0.0, 0.0, 0.0, 0.0, 0.0, 0.0, 0.0)"
2023/03/04/12:57:30.741320,112253,1668507679,881351459,,-2.762969236677597,-5.517455311033299,0.0,0.0,0.0,-0.6488835898627761,-0.7608876965799859,0.0008397215237678095,0.005251338649727632,0.0,0.0,0.0,6.443597957633503e-05,"(0.0, 0.0, 0.0, 0.0, 0.0, 0.0, 0.0, 0.0, 0.0, 0.0, 0.0, 0.0, 0.0, 0.0, 0.0)"
2023/03/04/12:57:30.741360,112254,1668507679,891362253,,-2.763001109098883,-5.517670785806899,0.0,0.0,0.0,-0.6488836433017904,-0.7608876510072922,0.0007453236312179601,0.004661009878150911,0.0,0.0,0.0,5.718974768451536e-05,"(0.0, 0.0, 0.0, 0.0, 0.0, 0.0, 0.0, 0.0, 0.0, 0.0, 0.0, 0.0, 0.0, 0.0, 0.0)"
2023/03/04/12:57:30.741419,112255,1668507679,901213196,,-2.762815034101571,-5.517776167329886,0.0,0.0,0.0,-0.6488883960378139,-0.7608835978567768,0.0007600211064782097,0.004753303920688344,0.0,0.0,0.0,5.831574762342843e-05,"(0.0, 0.0, 0.0, 0.0, 0.0, 0.0, 0.0, 0.0, 0.0, 0.0, 0.0, 0.0, 0.0, 0.0, 0.0)"
2023/03/04/12:57:30.741450,112256,1668507679,911381089,,-2.7628074485047946,-5.517730116807876,0.0,0.0,0.0,-0.6488886327555382,-0.7608833959817025,0.0007755389676314178,0.004850374675447485,0.0,0.0,0.0,5.950606839536108e-05,"(0.0, 0.0, 0.0, 0.0, 0.0, 0.0, 0.0, 0.0, 0.0, 0.0, 0.0, 0.0, 0.0, 0.0, 0.0)"
2023/03/04/12:57:30.741488,112257,1668507679,921131643,,-2.7626296467787927,-5.517848385406684,0.0,0.0,0.0,-0.6488919122362921,-0.7608805991969622,0.0007870097759079793,0.0049223875501559905,0.0,0.0,0.0,6.0385455275108946e-05,"(0.0, 0.0, 0.0, 0.0, 0.0, 0.0, 0.0, 0.0, 0.0, 0.0, 0.0, 0.0, 0.0, 0.0, 0.0)"
2023/03/04/12:57:30.742954,112258,1668507679,931064937,,-2.762621906181779,-5.517801585789949,0.0,0.0,0.0,-0.6488921626001651,-0.7608803856823232,0.0008055420475665825,0.00503831973332479,0.0,0.0,0.0,6.180447996477793e-05,"(0.0, 0.0, 0.0, 0.0, 0.0, 0.0, 0.0, 0.0, 0.0, 0.0, 0.0, 0.0, 0.0, 0.0, 0.0)"
2023/03/04/12:57:30.753151,112259,1668507679,941133652,,-2.7624473607304587,-5.517898781674868,0.0,0.0,0.0,-0.6488941575680656,-0.760878684334126,0.0008218048068000359,0.005140209209695561,0.0,0.0,0.0,6.305530064915939e-05,"(0.0, 0.0, 0.0, 0.0, 0.0, 0.0, 0.0, 0.0, 0.0, 0.0, 0.0, 0.0, 0.0, 0.0, 0.0)"
2023/03/04/12:57:30.768785,112260,1668507679,951095381,,-2.76243910493097,-5.517848667101423,0.0,0.0,0.0,-0.6488944154665579,-0.7608784643925166,0.0008397363727834766,0.005252390070378805,0.0,0.0,0.0,6.443126524811161e-05,"(0.0, 0.0, 0.0, 0.0, 0.0, 0.0, 0.0, 0.0, 0.0, 0.0, 0.0, 0.0, 0.0, 0.0, 0.0)"
2023/03/04/12:57:30.773054,112261,1668507679,961105298,,-2.7622686096591664,-5.517942820170446,0.0,0.0,0.0,-0.6488956234646458,-0.7608774341826866,0.000857888317421158,0.005366036302579267,0.0,0.0,0.0,6.582550388975428e-05,"(0.0, 0.0, 0.0, 0.0, 0.0, 0.0, 0.0, 0.0, 0.0, 0.0, 0.0, 0.0, 0.0, 0.0, 0.0)"
2023/03/04/12:57:30.797654,112262,1668507679,971181385,,-2.762303453807059,-5.518178004794627,0.0,0.0,0.0,-0.6488956650131421,-0.7608773987490706,0.0007553402279678268,0.004724607902129795,0.0,0.0,0.0,5.7952746099127145e-05,"(0.0, 0.0, 0.0, 0.0, 0.0, 0.0, 0.0, 0.0, 0.0, 0.0, 0.0, 0.0, 0.0, 0.0, 0.0)"
2023/03/04/12:57:30.797687,112263,1668507679,981339089,,-2.762137141508263,-5.518274725577467,0.0,0.0,0.0,-0.6488963067941343,-0.760876851421393,0.0007706739480131482,0.00482057156862103,0.0,0.0,0.0,5.9124133144264194e-05,"(0.0, 0.0, 0.0, 0.0, 0.0, 0.0, 0.0, 0.0, 0.0, 0.0, 0.0, 0.0, 0.0, 0.0, 0.0)"
2023/03/04/12:57:30.803315,112264,1668507679,991327926,,-2.7621297154317,-5.518229797296512,0.0,0.0,0.0,-0.6488965463592067,-0.760876647113771,0.0007858951308912864,0.004915800043872995,0.0,0.0,0.0,6.0292325756207746e-05,"(0.0, 0.0, 0.0, 0.0, 0.0, 0.0, 0.0, 0.0, 0.0, 0.0, 0.0, 0.0, 0.0, 0.0, 0.0)"
2023/03/04/12:57:30.813074,112265,1668507680,1186719,,-2.761966512041636,-5.51832479416696,0.0,0.0,0.0,-0.6488967554751784,-0.7608764687738651,0.00080266115231197,0.0050206897659315144,0.0,0.0,0.0,6.15777641301283e-05,"(0.0, 0.0, 0.0, 0.0, 0.0, 0.0, 0.0, 0.0, 0.0, 0.0, 0.0, 0.0, 0.0, 0.0, 0.0)"
2023/03/04/12:57:30.822837,112266,1668507680,11071415,,-2.761958368334737,-5.518275317616188,0.0,0.0,0.0,-0.6488970079378783,-0.7608762534665339,0.0008208139714650552,0.005134258507261142,0.0,0.0,0.0,6.2970277027168e-05,"(0.0, 0.0, 0.0, 0.0, 0.0, 0.0, 0.0, 0.0, 0.0, 0.0, 0.0, 0.0, 0.0, 0.0, 0.0)"
2023/03/04/12:57:30.833080,112267,1668507680,21136260,,-2.761768978719666,-5.518386399190422,0.0,0.0,0.0,-0.6489074575077036,-0.7608673416508872,0.0008276341052170245,0.005177831340690931,0.0,0.0,0.0,6.350909103128546e-05,"(0.0, 0.0, 0.0, 0.0, 0.0, 0.0, 0.0, 0.0, 0.0, 0.0, 0.0, 0.0, 0.0, 0.0, 0.0)"
2023/03/04/12:57:30.843002,112268,1668507680,31052573,,-2.7617606084460435,-5.518335617820529,0.0,0.0,0.0,-0.648907721606791,-0.7608671164132955,0.0008488871946967095,0.005310818236047573,0.0,0.0,0.0,6.513654649825267e-05,"(0.0, 0.0, 0.0, 0.0, 0.0, 0.0, 0.0, 0.0, 0.0, 0.0, 0.0, 0.0, 0.0, 0.0, 0.0)"
2023/03/04/12:57:30.857800,112269,1668507680,41059541,,-2.7616104594894524,-5.518421116197445,0.0,0.0,0.0,-0.6489045345308341,-0.7608698345087165,0.0008705686907174378,0.005446169537613713,0.0,0.0,0.0,6.679370014651121e-05,"(0.0, 0.0, 0.0, 0.0, 0.0, 0.0, 0.0, 0.0, 0.0, 0.0, 0.0, 0.0, 0.0, 0.0, 0.0)"
2023/03/04/12:57:30.863021,112270,1668507680,51055554,,-2.76164374538261,-5.518646103491714,0.0,0.0,0.0,-0.6489045907125289,-0.7608697865943984,0.000772368598468831,0.004831846542476838,0.0,0.0,0.0,5.925460498425344e-05,"(0.0, 0.0, 0.0, 0.0, 0.0, 0.0, 0.0, 0.0, 0.0, 0.0, 0.0, 0.0, 0.0, 0.0, 0.0)"
2023/03/04/12:57:30.907613,112271,1668507680,61058334,,-2.761494481454516,-5.518737100866056,0.0,0.0,0.0,-0.6489019859301441,-0.7608720080643754,0.0007888317067037041,0.004934621033317271,0.0,0.0,0.0,6.0508588437009863e-05,"(0.0, 0.0, 0.0, 0.0, 0.0, 0.0, 0.0, 0.0, 0.0, 0.0, 0.0, 0.0, 0.0, 0.0, 0.0)"
2023/03/04/12:57:30.907648,112272,1668507680,71071143,,-2.761489026733401,-5.518705276675828,0.0,0.0,0.0,-0.6489022190952578,-0.760871809211808,0.0007985441523706143,0.00499539791677382,0.0,0.0,0.0,6.125432343793599e-05,"(0.0, 0.0, 0.0, 0.0, 0.0, 0.0, 0.0, 0.0, 0.0, 0.0, 0.0, 0.0, 0.0, 0.0, 0.0)"
2023/03/04/12:57:30.907666,112273,1668507680,81212224,,-2.7613396217299,-5.518791802053793,0.0,0.0,0.0,-0.6489001032390236,-0.7608736136944063,0.0008161921295515574,0.005105614985661175,0.0,0.0,0.0,6.260530691337793e-05,"(0.0, 0.0, 0.0, 0.0, 0.0, 0.0, 0.0, 0.0, 0.0, 0.0, 0.0, 0.0, 0.0, 0.0, 0.0)"
2023/03/04/12:57:30.907700,112274,1668507680,91325984,,-2.7613316572008553,-5.51874358770729,0.0,0.0,0.0,-0.6489003588121376,-0.7608733957324826,0.0008338492266431132,0.005216089816394889,0.0,0.0,0.0,6.396028506720278e-05,"(0.0, 0.0, 0.0, 0.0, 0.0, 0.0, 0.0, 0.0, 0.0, 0.0, 0.0, 0.0, 0.0, 0.0, 0.0)"
2023/03/04/12:57:30.913356,112275,1668507680,101179182,,-2.7611827923128653,-5.518827500046419,0.0,0.0,0.0,-0.6488985623877738,-0.7608749277845082,0.0008534746154539458,0.005338693439314025,0.0,0.0,0.0,6.546251213569829e-05,"(0.0, 0.0, 0.0, 0.0, 0.0, 0.0, 0.0, 0.0, 0.0, 0.0, 0.0, 0.0, 0.0, 0.0, 0.0)"
2023/03/04/12:57:30.922972,112276,1668507680,111071176,,-2.7611740290784685,-5.518774184595728,0.0,0.0,0.0,-0.6488988305374609,-0.7608746990977657,0.0008727220529204808,0.005459115574518732,0.0,0.0,0.0,6.694039314339533e-05,"(0.0, 0.0, 0.0, 0.0, 0.0, 0.0, 0.0, 0.0, 0.0, 0.0, 0.0, 0.0, 0.0, 0.0, 0.0)"
2023/03/04/12:57:30.933620,112277,1668507680,121274859,,-2.761028501175637,-5.518873087491397,0.0,0.0,0.0,-0.6488971997420732,-0.7608760898903947,0.0008840113500271374,0.005529581161442531,0.0,0.0,0.0,6.780525160626399e-05,"(0.0, 0.0, 0.0, 0.0, 0.0, 0.0, 0.0, 0.0, 0.0, 0.0, 0.0, 0.0, 0.0, 0.0, 0.0)"
2023/03/04/12:57:30.943021,112278,1668507680,131070227,,-2.761061922445682,-5.5190990213367614,0.0,0.0,0.0,-0.6488972571827645,-0.7608760409033033,0.0007838252263596019,0.004902911487966269,0.0,0.0,0.0,6.011682911533509e-05,"(0.0, 0.0, 0.0, 0.0, 0.0, 0.0, 0.0, 0.0, 0.0, 0.0, 0.0, 0.0, 0.0, 0.0, 0.0)"
2023/03/04/12:57:30.958757,112279,1668507680,141090537,,-2.7609154173919728,-5.519182991190686,0.0,0.0,0.0,-0.6488959210085845,-0.7608771804295493,0.0007996136209795025,0.005001556913890459,0.0,0.0,0.0,6.132213931668054e-05,"(0.0, 0.0, 0.0, 0.0, 0.0, 0.0, 0.0, 0.0, 0.0, 0.0, 0.0, 0.0, 0.0, 0.0, 0.0)"
2023/03/04/12:57:30.962877,112280,1668507680,151083360,,-2.7609077633283072,-5.51913677849545,0.0,0.0,0.0,-0.6488961720490602,-0.760876966335607,0.0008167288991872426,0.005108634041143942,0.0,0.0,0.0,6.263456469830783e-05,"(0.0, 0.0, 0.0, 0.0, 0.0, 0.0, 0.0, 0.0, 0.0, 0.0, 0.0, 0.0, 0.0, 0.0, 0.0)"
2023/03/04/12:57:30.983888,112281,1668507680,161342460,,-2.7607623759770012,-5.519218223829128,0.0,0.0,0.0,-0.6488949530028189,-0.760878005969071,0.0008359328610631633,0.005228647223591772,0.0,0.0,0.0,6.410447614445323e-05,"(0.0, 0.0, 0.0, 0.0, 0.0, 0.0, 0.0, 0.0, 0.0, 0.0, 0.0, 0.0, 0.0, 0.0, 0.0)"
2023/03/04/12:57:30.983933,112282,1668507680,171180431,,-2.760756778671222,-5.519185802916801,0.0,0.0,0.0,-0.6488952014140184,-0.7608777941179915,0.0008482800392867905,0.005305899381037583,0.0,0.0,0.0,6.505007737379155e-05,"(0.0, 0.0, 0.0, 0.0, 0.0, 0.0, 0.0, 0.0, 0.0, 0.0, 0.0, 0.0, 0.0, 0.0, 0.0)"
2023/03/04/12:57:30.993185,112283,1668507680,181222851,,-2.7606125504775845,-5.519264500052398,0.0,0.0,0.0,-0.6488940665773963,-0.7608787619329701,0.0008649663521008604,0.005410166929057193,0.0,0.0,0.0,6.633117835635074e-05,"(0.0, 0.0, 0.0, 0.0, 0.0, 0.0, 0.0, 0.0, 0.0, 0.0, 0.0, 0.0, 0.0, 0.0, 0.0)"
2023/03/04/12:57:31.003300,112284,1668507680,191316175,,-2.7606038778347526,-5.519211794061243,0.0,0.0,0.0,-0.6488943351999051,-0.7608785328457317,0.0008823005813562347,0.005518613568396433,0.0,0.0,0.0,6.766423288572356e-05,"(0.0, 0.0, 0.0, 0.0, 0.0, 0.0, 0.0, 0.0, 0.0, 0.0, 0.0, 0.0, 0.0, 0.0, 0.0)"
2023/03/04/12:57:31.013227,112285,1668507680,201317677,,-2.760460704046155,-5.519286745146461,0.0,0.0,0.0,-0.6488932648845633,-0.7608794456334406,0.0008997886903952691,0.005627896624930093,0.0,0.0,0.0,6.900787594626111e-05,"(0.0, 0.0, 0.0, 0.0, 0.0, 0.0, 0.0, 0.0, 0.0, 0.0, 0.0, 0.0, 0.0, 0.0, 0.0)"
2023/03/04/12:57:31.023345,112286,1668507680,211368302,,-2.760495082253652,-5.519519018439229,0.0,0.0,0.0,-0.6488933177394594,-0.7608794005577212,0.0007981576824956654,0.004992230929971579,0.0,0.0,0.0,6.120776479714852e-05,"(0.0, 0.0, 0.0, 0.0, 0.0, 0.0, 0.0, 0.0, 0.0, 0.0, 0.0, 0.0, 0.0, 0.0, 0.0)"
2023/03/04/12:57:31.033223,112287,1668507680,221261185,,-2.760387074408228,-5.519609967081707,0.0,0.0,0.0,-0.6488816914607807,-0.7608893155295298,0.0008085967164240895,0.005056532647309819,0.0,0.0,0.0,6.199018588259699e-05,"(0.0, 0.0, 0.0, 0.0, 0.0, 0.0, 0.0, 0.0, 0.0, 0.0, 0.0, 0.0, 0.0, 0.0, 0.0)"
2023/03/04/12:57:31.043191,112288,1668507680,231180344,,-2.7603789045133564,-5.519560321911095,0.0,0.0,0.0,-0.6488819430320724,-0.7608891009910198,0.0008255937684583722,0.005162845041389843,0.0,0.0,0.0,6.329488180877716e-05,"(0.0, 0.0, 0.0, 0.0, 0.0, 0.0, 0.0, 0.0, 0.0, 0.0, 0.0, 0.0, 0.0, 0.0, 0.0)"
2023/03/04/12:57:31.059188,112289,1668507680,241222240,,-2.7602303514381195,-5.519637084222559,0.0,0.0,0.0,-0.6488838592898252,-0.7608874668130251,0.0008451080855656386,0.00528504841752191,0.0,0.0,0.0,6.479165005087456e-05,"(0.0, 0.0, 0.0, 0.0, 0.0, 0.0, 0.0, 0.0, 0.0, 0.0, 0.0, 0.0, 0.0, 0.0, 0.0)"
2023/03/04/12:57:31.063181,112290,1668507680,251176372,,-2.7602220944446807,-5.519587129543521,0.0,0.0,0.0,-0.6488841242690884,-0.7608872408389683,0.0008646494928061431,0.005407278577819668,0.0,0.0,0.0,6.628950494371599e-05,"(0.0, 0.0, 0.0, 0.0, 0.0, 0.0, 0.0, 0.0, 0.0, 0.0, 0.0, 0.0, 0.0, 0.0, 0.0)"
2023/03/04/12:57:31.091581,112291,1668507680,261207427,,-2.760213574216893,-5.519535350339899,0.0,0.0,0.0,-0.6488843882088167,-0.7608870157512676,0.0008786228894285469,0.005494688781227436,0.0,0.0,0.0,6.736813243785751e-05,"(0.0, 0.0, 0.0, 0.0, 0.0, 0.0, 0.0, 0.0, 0.0, 0.0, 0.0, 0.0, 0.0, 0.0, 0.0)"
2023/03/04/12:57:31.091613,112292,1668507680,271183967,,-2.7600706301939413,-5.519628100166686,0.0,0.0,0.0,-0.6488856054900204,-0.7608859776522693,0.0008847901173951563,0.0055333706417077366,0.0,0.0,0.0,6.784860500333518e-05,"(0.0, 0.0, 0.0, 0.0, 0.0, 0.0, 0.0, 0.0, 0.0, 0.0, 0.0, 0.0, 0.0, 0.0, 0.0)"
2023/03/04/12:57:31.093111,112293,1668507680,281244049,,-2.75992882447141,-5.519698660588584,0.0,0.0,0.0,-0.6488861727834023,-0.7608854938625841,0.0009021037559606512,0.00564170200468254,0.0,0.0,0.0,6.918013009257617e-05,"(0.0, 0.0, 0.0, 0.0, 0.0, 0.0, 0.0, 0.0, 0.0, 0.0, 0.0, 0.0, 0.0, 0.0, 0.0)"
2023/03/04/12:57:31.103087,112294,1668507680,291182336,,-2.759962683454932,-5.519927496870235,0.0,0.0,0.0,-0.6488862292411467,-0.7608854457151918,0.0007956179980383393,0.004975751289351376,0.0,0.0,0.0,6.101586886088509e-05,"(0.0, 0.0, 0.0, 0.0, 0.0, 0.0, 0.0, 0.0, 0.0, 0.0, 0.0, 0.0, 0.0, 0.0, 0.0)"
2023/03/04/12:57:31.113046,112295,1668507680,301117327,,-2.7598529610680886,-5.51999543519787,0.0,0.0,0.0,-0.6488764010344101,-0.7608938271405751,0.000807532129553179,0.005049424962129743,0.0,0.0,0.0,6.192044597938404e-05,"(0.0, 0.0, 0.0, 0.0, 0.0, 0.0, 0.0, 0.0, 0.0, 0.0, 0.0, 0.0, 0.0, 0.0, 0.0)"
2023/03/04/12:57:31.123003,112296,1668507680,311123448,,-2.759845063473251,-5.519947540019035,0.0,0.0,0.0,-0.6488766495243915,-0.7608936152327735,0.0008217550121791296,0.005138380876060826,0.0,0.0,0.0,6.301394324990349e-05,"(0.0, 0.0, 0.0, 0.0, 0.0, 0.0, 0.0, 0.0, 0.0, 0.0, 0.0, 0.0, 0.0, 0.0, 0.0)"
2023/03/04/12:57:31.133269,112297,1668507680,321253323,,-2.7597330278297245,-5.520033337698422,0.0,0.0,0.0,-0.6488689020847694,-0.7609002220444583,0.0008290174499856944,0.005183115557528164,0.0,0.0,0.0,6.356538499685626e-05,"(0.0, 0.0, 0.0, 0.0, 0.0, 0.0, 0.0, 0.0, 0.0, 0.0, 0.0, 0.0, 0.0, 0.0, 0.0)"
2023/03/04/12:57:31.143070,112298,1668507680,331072513,,-2.75972489881912,-5.5199840492148295,0.0,0.0,0.0,-0.6488691581937635,-0.7609000036436566,0.0008433796693791288,0.005272932619199855,0.0,0.0,0.0,6.46700913371936e-05,"(0.0, 0.0, 0.0, 0.0, 0.0, 0.0, 0.0, 0.0, 0.0, 0.0, 0.0, 0.0, 0.0, 0.0, 0.0)"
2023/03/04/12:57:31.159421,112299,1668507680,341210624,,-2.759576266011201,-5.520055878095954,0.0,0.0,0.0,-0.6488736484187074,-0.7608961745125254,0.0008579244256278979,0.005364274513543726,0.0,0.0,0.0,6.579378527953186e-05,"(0.0, 0.0, 0.0, 0.0, 0.0, 0.0, 0.0, 0.0, 0.0, 0.0, 0.0, 0.0, 0.0, 0.0, 0.0)"
2023/03/04/12:57:31.163119,112300,1668507680,351155687,,-2.7595675914212325,-5.520003077859768,0.0,0.0,0.0,-0.6488739118842838,-0.7608959498354468,0.000873167722093627,0.005459609282677926,0.0,0.0,0.0,6.696704769521869e-05,"(0.0, 0.0, 0.0, 0.0, 0.0, 0.0, 0.0, 0.0, 0.0, 0.0, 0.0, 0.0, 0.0, 0.0, 0.0)"
2023/03/04/12:57:31.173199,112301,1668507680,361211272,,-2.7594243197495283,-5.520070868119678,0.0,0.0,0.0,-0.6488770065331043,-0.7608933107818978,0.0008884591175466678,0.0055555107591777845,0.0,0.0,0.0,6.814741555143488e-05,"(0.0, 0.0, 0.0, 0.0, 0.0, 0.0, 0.0, 0.0, 0.0, 0.0, 0.0, 0.0, 0.0, 0.0, 0.0)"
2023/03/04/12:57:31.188636,112302,1668507680,371143949,,-2.759460563986701,-5.5203154355729875,0.0,0.0,0.0,-0.6488770485449676,-0.760893274954886,0.0007809902139000737,0.004883514078497024,0.0,0.0,0.0,5.9900587229874284e-05,"(0.0, 0.0, 0.0, 0.0, 0.0, 0.0, 0.0, 0.0, 0.0, 0.0, 0.0, 0.0, 0.0, 0.0, 0.0)"
2023/03/04/12:57:31.192990,112303,1668507680,381205408,,-2.759322796737121,-5.520388013746611,0.0,0.0,0.0,-0.6488791198893882,-0.7608915085421659,0.0007971108928321088,0.00498449035186667,0.0,0.0,0.0,6.113166042325004e-05,"(0.0, 0.0, 0.0, 0.0, 0.0, 0.0, 0.0, 0.0, 0.0, 0.0, 0.0, 0.0, 0.0, 0.0, 0.0)"
2023/03/04/12:57:31.203080,112304,1668507680,391141493,,-2.759314986619177,-5.520340674280049,0.0,0.0,0.0,-0.6488793674481106,-0.7608912974269977,0.0008125560061170072,0.005081092870465214,0.0,0.0,0.0,6.231670515892931e-05,"(0.0, 0.0, 0.0, 0.0, 0.0, 0.0, 0.0, 0.0, 0.0, 0.0, 0.0, 0.0, 0.0, 0.0, 0.0)"
2023/03/04/12:57:31.213183,112305,1668507680,401181623,,-2.7591806132111176,-5.520409083296152,0.0,0.0,0.0,-0.6488806597881395,-0.7608901953323547,0.0008282054806262772,0.005179065329708865,0.0,0.0,0.0,6.351915478268865e-05,"(0.0, 0.0, 0.0, 0.0, 0.0, 0.0, 0.0, 0.0, 0.0, 0.0, 0.0, 0.0, 0.0, 0.0, 0.0)"
2023/03/04/12:57:31.223329,112306,1668507680,411339464,,-2.7591722669864347,-5.520358349175813,0.0,0.0,0.0,-0.6488809168640692,-0.7608899761001224,0.0008431067803326522,0.0052722713386803505,0.0,0.0,0.0,6.46654969176925e-05,"(0.0, 0.0, 0.0, 0.0, 0.0, 0.0, 0.0, 0.0, 0.0, 0.0, 0.0, 0.0, 0.0, 0.0, 0.0)"
2023/03/04/12:57:31.233303,112307,1668507680,421252332,,-2.7590374004558935,-5.520571750736448,0.0,0.0,0.0,-0.6488837027789963,-0.7608876002852322,0.0008499775548768012,0.005315486569734851,0.0,0.0,0.0,6.519829423918274e-05,"(0.0, 0.0, 0.0, 0.0, 0.0, 0.0, 0.0, 0.0, 0.0, 0.0, 0.0, 0.0, 0.0, 0.0, 0.0)"
2023/03/04/12:57:31.242990,112308,1668507680,431069125,,-2.7590288141503976,-5.520519491563558,0.0,0.0,0.0,-0.648883963997194,-0.7608873775187024,0.0008650275607919766,0.005409628294020509,0.0,0.0,0.0,6.635634488727064e-05,"(0.0, 0.0, 0.0, 0.0, 0.0, 0.0, 0.0, 0.0, 0.0, 0.0, 0.0, 0.0, 0.0, 0.0, 0.0)"
2023/03/04/12:57:31.259218,112309,1668507680,441214074,,-2.7588666477338206,-5.520714169212642,0.0,0.0,0.0,-0.6488957879479477,-0.7608772939071137,0.0008783598398777968,0.00549409959779459,0.0,0.0,0.0,6.739764044527294e-05,"(0.0, 0.0, 0.0, 0.0, 0.0, 0.0, 0.0, 0.0, 0.0, 0.0, 0.0, 0.0, 0.0, 0.0, 0.0)"
2023/03/04/12:57:31.263065,112310,1668507680,451125998,,-2.7589000544518814,-5.520939916152976,0.0,0.0,0.0,-0.6488958431537529,-0.760877246826175,0.000777365373731354,0.004862388475538717,0.0,0.0,0.0,5.964710295687298e-05,"(0.0, 0.0, 0.0, 0.0, 0.0, 0.0, 0.0, 0.0, 0.0, 0.0, 0.0, 0.0, 0.0, 0.0, 0.0)"
2023/03/04/12:57:31.280984,112311,1668507680,461245357,,-2.7587797382757504,-5.521132020630763,0.0,0.0,0.0,-0.6488940990081385,-0.760878734275322,0.0007917899871288455,0.0049524681915560295,0.0,0.0,0.0,6.074631499042526e-05,"(0.0, 0.0, 0.0, 0.0, 0.0, 0.0, 0.0, 0.0, 0.0, 0.0, 0.0, 0.0, 0.0, 0.0, 0.0)"
2023/03/04/12:57:31.283108,112312,1668507680,471182694,,-2.758774379441131,-5.521100867229733,0.0,0.0,0.0,-0.648894332763687,-0.7608785349233933,0.0008003123572449501,0.005005793428622838,0.0,0.0,0.0,6.140005344217366e-05,"(0.0, 0.0, 0.0, 0.0, 0.0, 0.0, 0.0, 0.0, 0.0, 0.0, 0.0, 0.0, 0.0, 0.0, 0.0)"
2023/03/04/12:57:31.293226,112313,1668507680,481212757,,-2.7586540553881993,-5.52128598011803,0.0,0.0,0.0,-0.6488928491668916,-0.7608798001656198,0.0008135515485640204,0.0050884746278845785,0.0,0.0,0.0,6.241775425115484e-05,"(0.0, 0.0, 0.0, 0.0, 0.0, 0.0, 0.0, 0.0, 0.0, 0.0, 0.0, 0.0, 0.0, 0.0, 0.0)"
2023/03/04/12:57:31.303134,112314,1668507680,491184892,,-2.758645625763268,-5.521234528373141,0.0,0.0,0.0,-0.6488930995505862,-0.7608795866335442,0.0008272319815852317,0.0051740626978898285,0.0,0.0,0.0,6.347189757800189e-05,"(0.0, 0.0, 0.0, 0.0, 0.0, 0.0, 0.0, 0.0, 0.0, 0.0, 0.0, 0.0, 0.0, 0.0, 0.0)"
2023/03/04/12:57:31.313232,112315,1668507680,501221769,,-2.758526064713256,-5.521416540880742,0.0,0.0,0.0,-0.6488917806465372,-0.7608807114189229,0.0008405440752586501,0.005257208535853248,0.0,0.0,0.0,6.449622449279531e-05,"(0.0, 0.0, 0.0, 0.0, 0.0, 0.0, 0.0, 0.0, 0.0, 0.0, 0.0, 0.0, 0.0, 0.0, 0.0)"
2023/03/04/12:57:31.323032,112316,1668507680,511109770,,-2.7585174187229833,-5.52136376793406,0.0,0.0,0.0,-0.6488920378493993,-0.7608804920719506,0.0008541438909824001,0.005342292164995714,0.0,0.0,0.0,6.554486060067229e-05,"(0.0, 0.0, 0.0, 0.0, 0.0, 0.0, 0.0, 0.0, 0.0, 0.0, 0.0, 0.0, 0.0, 0.0, 0.0)"
2023/03/04/12:57:31.333011,112317,1668507680,521154393,,-2.7583711938209547,-5.521568648321925,0.0,0.0,0.0,-0.6489013593944901,-0.7608725423985169,0.0008647404613282952,0.005409419205740232,0.0,0.0,0.0,6.636529130682703e-05,"(0.0, 0.0, 0.0, 0.0, 0.0, 0.0, 0.0, 0.0, 0.0, 0.0, 0.0, 0.0, 0.0, 0.0, 0.0)"
2023/03/04/12:57:31.343052,112318,1668507680,531069073,,-2.7584041976946403,-5.521791734182475,0.0,0.0,0.0,-0.6489014178863345,-0.760872492514419,0.0007679444301847299,0.004803912425575488,0.0,0.0,0.0,5.893214582268141e-05,"(0.0, 0.0, 0.0, 0.0, 0.0, 0.0, 0.0, 0.0, 0.0, 0.0, 0.0, 0.0, 0.0, 0.0, 0.0)"
2023/03/04/12:57:31.357664,112319,1668507680,541092443,,-2.758266637519579,-5.521977477143434,0.0,0.0,0.0,-0.6489076378645728,-0.7608671878330806,0.0007778214951653348,0.004866209282710692,0.0,0.0,0.0,5.96956188566897e-05,"(0.0, 0.0, 0.0, 0.0, 0.0, 0.0, 0.0, 0.0, 0.0, 0.0, 0.0, 0.0, 0.0, 0.0, 0.0)"
