time,.header.seq,.header.stamp.secs,.header.stamp.nsecs,.header.frame_id,.pose.position.x,.pose.position.y,.pose.position.z,.pose.orientation.x,.pose.orientation.y,.pose.orientation.z,.pose.orientation.w,.velocity.linear.x,.velocity.linear.y,.velocity.linear.z,.velocity.angular.x,.velocity.angular.y,.velocity.angular.z,.covariance
2023/03/04/12:22:00.681974,240124,1668508958,603351157,,238.70937625620454,181.152766885302,0.0,0.0,0.0,0.06142695332541316,-0.9981115816406287,0.006251126756215431,-0.0007723536831160031,0.0,0.0,0.0,-0.00010405886695672964,"(0.0, 0.0, 0.0, 0.0, 0.0, 0.0, 0.0, 0.0, 0.0, 0.0, 0.0, 0.0, 0.0, 0.0, 0.0)"
2023/03/04/12:22:00.757001,240125,1668508958,613381181,,238.7094385061608,181.15275636574637,0.0,0.0,0.0,0.061427499782219445,-0.9981115480097931,0.00634687115841203,-0.0007841903729245237,0.0,0.0,0.0,-0.0001055659638532323,"(0.0, 0.0, 0.0, 0.0, 0.0, 0.0, 0.0, 0.0, 0.0, 0.0, 0.0, 0.0, 0.0, 0.0, 0.0)"
2023/03/04/12:22:00.757069,240126,1668508958,623353165,,238.70930072603824,181.15308082144293,0.0,0.0,0.0,0.06142479996763296,-0.9981117141627666,0.0064351344706144705,-0.0007950604395974491,0.0,0.0,0.0,-0.00010694476193378174,"(0.0, 0.0, 0.0, 0.0, 0.0, 0.0, 0.0, 0.0, 0.0, 0.0, 0.0, 0.0, 0.0, 0.0, 0.0)"
2023/03/04/12:22:00.757165,240127,1668508958,633095385,,238.70935966833594,181.15307042955646,0.0,0.0,0.0,0.061425351686210126,-0.9981116802092967,0.00650684212023406,-0.0008039272182617286,0.0,0.0,0.0,-0.00010808323409715441,"(0.0, 0.0, 0.0, 0.0, 0.0, 0.0, 0.0, 0.0, 0.0, 0.0, 0.0, 0.0, 0.0, 0.0, 0.0)"
2023/03/04/12:22:00.830517,240128,1668508958,643182866,,238.70923441307517,181.1533586781909,0.0,0.0,0.0,0.06140931290813513,-0.9981126671313969,0.006628506137654739,-0.0008187426567190236,0.0,0.0,0.0,-0.00011003468659909611,"(0.0, 0.0, 0.0, 0.0, 0.0, 0.0, 0.0, 0.0, 0.0, 0.0, 0.0, 0.0, 0.0, 0.0, 0.0)"
2023/03/04/12:22:00.830648,240129,1668508958,653199696,,238.70931589789896,181.15334425785204,0.0,0.0,0.0,0.06140991383002222,-0.9981126301592367,0.006754322065596922,-0.000834291499403748,0.0,0.0,0.0,-0.00011203547830813584,"(0.0, 0.0, 0.0, 0.0, 0.0, 0.0, 0.0, 0.0, 0.0, 0.0, 0.0, 0.0, 0.0, 0.0, 0.0)"
2023/03/04/12:22:00.830704,240130,1668508958,663362918,,238.70886668340074,181.15369603205383,0.0,0.0,0.0,0.06139706273064981,-0.9981134207533975,0.006020110423187029,-0.0007434445468100608,0.0,0.0,0.0,-0.00010029165650560767,"(0.0, 0.0, 0.0, 0.0, 0.0, 0.0, 0.0, 0.0, 0.0, 0.0, 0.0, 0.0, 0.0, 0.0, 0.0)"
2023/03/04/12:22:00.830753,240131,1668508958,673377354,,238.70893764110943,181.15368363828364,0.0,0.0,0.0,0.06139761076213174,-0.9981133870421245,0.00613580370787389,-0.0007577387569341453,0.0,0.0,0.0,-0.00010218885834000676,"(0.0, 0.0, 0.0, 0.0, 0.0, 0.0, 0.0, 0.0, 0.0, 0.0, 0.0, 0.0, 0.0, 0.0, 0.0)"
2023/03/04/12:22:00.830796,240132,1668508958,683326368,,238.70878132670666,181.15398693969598,0.0,0.0,0.0,0.061388179599760895,-0.9981139671427445,0.0061106880301709755,-0.0007545198653099487,0.0,0.0,0.0,-0.0001016882154215416,"(0.0, 0.0, 0.0, 0.0, 0.0, 0.0, 0.0, 0.0, 0.0, 0.0, 0.0, 0.0, 0.0, 0.0, 0.0)"
2023/03/04/12:22:00.830859,240133,1668508958,693346484,,238.70885979129733,181.15397302107232,0.0,0.0,0.0,0.06138876026455875,-0.9981139314292635,0.006281524192592432,-0.0007756213549877959,0.0,0.0,0.0,-0.00010448907218929584,"(0.0, 0.0, 0.0, 0.0, 0.0, 0.0, 0.0, 0.0, 0.0, 0.0, 0.0, 0.0, 0.0, 0.0, 0.0)"
2023/03/04/12:22:00.879575,240134,1668508958,703181724,,238.70872779213698,181.15424250757192,0.0,0.0,0.0,0.06136788079097758,-0.9981152153971126,0.006371096528637919,-0.0007864108285495412,0.0,0.0,0.0,-0.00010589114845753855,"(0.0, 0.0, 0.0, 0.0, 0.0, 0.0, 0.0, 0.0, 0.0, 0.0, 0.0, 0.0, 0.0, 0.0, 0.0)"
2023/03/04/12:22:00.879623,240135,1668508958,713379005,,238.70880480880132,181.1542290392013,0.0,0.0,0.0,0.06136846035469372,-0.9981151797631846,0.0064959149962356185,-0.0008018253476544292,0.0,0.0,0.0,-0.00010788379562745519,"(0.0, 0.0, 0.0, 0.0, 0.0, 0.0, 0.0, 0.0, 0.0, 0.0, 0.0, 0.0, 0.0, 0.0, 0.0)"
2023/03/04/12:22:00.879672,240136,1668508958,723407672,,238.70868531306854,181.15450489670062,0.0,0.0,0.0,0.06135270858134695,-0.9981161481259244,0.006621332770365897,-0.0008170941581006672,0.0,0.0,0.0,-0.00010988378179577224,"(0.0, 0.0, 0.0, 0.0, 0.0, 0.0, 0.0, 0.0, 0.0, 0.0, 0.0, 0.0, 0.0, 0.0, 0.0)"
2023/03/04/12:22:00.879738,240137,1668508958,733244988,,238.70874342687307,181.1544948763064,0.0,0.0,0.0,0.06135327487426382,-0.9981161133165836,0.006700972000855343,-0.0008269296196185043,0.0,0.0,0.0,-0.00011114775770392819,"(0.0, 0.0, 0.0, 0.0, 0.0, 0.0, 0.0, 0.0, 0.0, 0.0, 0.0, 0.0, 0.0, 0.0, 0.0)"
2023/03/04/12:22:00.879813,240138,1668508958,743185110,,238.70830166606953,181.1548342583024,0.0,0.0,0.0,0.06134077267762419,-0.9981168817364587,0.005983992979120664,-0.0007382990423524416,0.0,0.0,0.0,-9.969492379634327e-05,"(0.0, 0.0, 0.0, 0.0, 0.0, 0.0, 0.0, 0.0, 0.0, 0.0, 0.0, 0.0, 0.0, 0.0, 0.0)"
2023/03/04/12:22:00.952746,240139,1668508958,753227913,,238.70837003805974,181.15482231838922,0.0,0.0,0.0,0.06134131230940925,-0.9981168485724302,0.006091194630560789,-0.0007515321610835026,0.0,0.0,0.0,-0.00010144672295627142,"(0.0, 0.0, 0.0, 0.0, 0.0, 0.0, 0.0, 0.0, 0.0, 0.0, 0.0, 0.0, 0.0, 0.0, 0.0)"
2023/03/04/12:22:00.952814,240140,1668508958,763343360,,238.70825451235058,181.15510592150525,0.0,0.0,0.0,0.061332060762706246,-0.9981174171021161,0.006226512445766687,-0.0007681105018193601,0.0,0.0,0.0,-0.00010364172182211966,"(0.0, 0.0, 0.0, 0.0, 0.0, 0.0, 0.0, 0.0, 0.0, 0.0, 0.0, 0.0, 0.0, 0.0, 0.0)"
2023/03/04/12:22:00.952856,240141,1668508958,773209786,,238.70833245257165,181.1550920755653,0.0,0.0,0.0,0.06133263668679811,-0.9981173817127148,0.006367235275698873,-0.0007854777090069049,0.0,0.0,0.0,-0.00010591523443876933,"(0.0, 0.0, 0.0, 0.0, 0.0, 0.0, 0.0, 0.0, 0.0, 0.0, 0.0, 0.0, 0.0, 0.0, 0.0)"
2023/03/04/12:22:00.952887,240142,1668508958,783206391,,238.7081847389907,181.1553835197195,0.0,0.0,0.0,0.061325273713254545,-0.998117834127812,0.0063399383745383195,-0.0007820153355670534,0.0,0.0,0.0,-0.00010537102605746469,"(0.0, 0.0, 0.0, 0.0, 0.0, 0.0, 0.0, 0.0, 0.0, 0.0, 0.0, 0.0, 0.0, 0.0, 0.0)"
2023/03/04/12:22:00.952977,240143,1668508958,793335559,,238.70827377819342,181.15536747510905,0.0,0.0,0.0,0.06132590750062231,-0.9981177951871337,0.006573545198791854,-0.0008108386206581434,0.0,0.0,0.0,-0.00010922669688190708,"(0.0, 0.0, 0.0, 0.0, 0.0, 0.0, 0.0, 0.0, 0.0, 0.0, 0.0, 0.0, 0.0, 0.0, 0.0)"
2023/03/04/12:22:00.953040,240144,1668508958,803187236,,238.70816387416025,181.15565191250045,0.0,0.0,0.0,0.06132005700082306,-0.9981181546337166,0.006709399232947918,-0.0008275161954078711,0.0,0.0,0.0,-0.00011140401941138048,"(0.0, 0.0, 0.0, 0.0, 0.0, 0.0, 0.0, 0.0, 0.0, 0.0, 0.0, 0.0, 0.0, 0.0, 0.0)"
2023/03/04/12:22:01.020177,240145,1668508958,813371891,,238.70824932280502,181.1556367231424,0.0,0.0,0.0,0.06132068231170733,-0.9981181162171272,0.006871330591084515,-0.0008474970403362665,0.0,0.0,0.0,-0.00011401163481908466,"(0.0, 0.0, 0.0, 0.0, 0.0, 0.0, 0.0, 0.0, 0.0, 0.0, 0.0, 0.0, 0.0, 0.0, 0.0)"
2023/03/04/12:22:01.020247,240146,1668508958,823211978,,238.70781018106766,181.15597962253602,0.0,0.0,0.0,0.06131538606287653,-0.9981184415849456,0.0061505985567548455,-0.0007585370357608833,0.0,0.0,0.0,-0.0001025148774613763,"(0.0, 0.0, 0.0, 0.0, 0.0, 0.0, 0.0, 0.0, 0.0, 0.0, 0.0, 0.0, 0.0, 0.0, 0.0)"
2023/03/04/12:22:01.020366,240147,1668508958,833179872,,238.70786770315794,181.15596954664204,0.0,0.0,0.0,0.0613159241927883,-0.9981184085269564,0.006240212180205759,-0.0007695956777742942,0.0,0.0,0.0,-0.00010400614229087508,"(0.0, 0.0, 0.0, 0.0, 0.0, 0.0, 0.0, 0.0, 0.0, 0.0, 0.0, 0.0, 0.0, 0.0, 0.0)"
2023/03/04/12:22:01.020398,240148,1668508958,843165349,,238.7077457897784,181.15625446466026,0.0,0.0,0.0,0.06131190480637626,-0.9981186554358223,0.006332732813310411,-0.0007809543247134875,0.0,0.0,0.0,-0.00010547653649811993,"(0.0, 0.0, 0.0, 0.0, 0.0, 0.0, 0.0, 0.0, 0.0, 0.0, 0.0, 0.0, 0.0, 0.0, 0.0)"
2023/03/04/12:22:01.020430,240149,1668508958,853215613,,238.707809366487,181.15624365078108,0.0,0.0,0.0,0.06131245918907187,-0.9981186213813408,0.0064293232199953325,-0.0007928731304757653,0.0,0.0,0.0,-0.00010699623019098958,"(0.0, 0.0, 0.0, 0.0, 0.0, 0.0, 0.0, 0.0, 0.0, 0.0, 0.0, 0.0, 0.0, 0.0, 0.0)"
2023/03/04/12:22:01.069081,240150,1668508958,863352573,,238.70770999548543,181.15652235943767,0.0,0.0,0.0,0.06130902357809982,-0.9981188324182146,0.006565620149532667,-0.0008096355722110101,0.0,0.0,0.0,-0.00010919246402575637,"(0.0, 0.0, 0.0, 0.0, 0.0, 0.0, 0.0, 0.0, 0.0, 0.0, 0.0, 0.0, 0.0, 0.0, 0.0)"
2023/03/04/12:22:01.069157,240151,1668508958,873257626,,238.70779616308482,181.15650711348889,0.0,0.0,0.0,0.061309629253773486,-0.9981187952146602,0.0067063587654884954,-0.0008269989343768676,0.0,0.0,0.0,-0.000111451673264598,"(0.0, 0.0, 0.0, 0.0, 0.0, 0.0, 0.0, 0.0, 0.0, 0.0, 0.0, 0.0, 0.0, 0.0, 0.0)"
2023/03/04/12:22:01.069253,240152,1668508958,883404916,,238.70765721001752,181.15679149862524,0.0,0.0,0.0,0.06130649892742913,-0.9981189874906004,0.006677623101701546,-0.0008234128555862419,0.0,0.0,0.0,-0.00011087858494982198,"(0.0, 0.0, 0.0, 0.0, 0.0, 0.0, 0.0, 0.0, 0.0, 0.0, 0.0, 0.0, 0.0, 0.0, 0.0)"
2023/03/04/12:22:01.069283,240153,1668508958,893218737,,238.70773607284087,181.15677775907037,0.0,0.0,0.0,0.06130712712871999,-0.9981189489050005,0.0068723351854441716,-0.0008474314434671775,0.0,0.0,0.0,-0.00011405236850596314,"(0.0, 0.0, 0.0, 0.0, 0.0, 0.0, 0.0, 0.0, 0.0, 0.0, 0.0, 0.0, 0.0, 0.0, 0.0)"
2023/03/04/12:22:01.069317,240154,1668508958,903340402,,238.7072904814095,181.15714556535713,0.0,0.0,0.0,0.06131735862358889,-0.9981183204066671,0.006099180819712992,-0.0007522202964304913,0.0,0.0,0.0,-0.00010165303259167588,"(0.0, 0.0, 0.0, 0.0, 0.0, 0.0, 0.0, 0.0, 0.0, 0.0, 0.0, 0.0, 0.0, 0.0, 0.0)"
2023/03/04/12:22:01.107601,240155,1668508958,913370278,,238.70736214705474,181.15713310820527,0.0,0.0,0.0,0.06131791613808154,-0.9981182861567477,0.006224810109600441,-0.0007677213879511579,0.0,0.0,0.0,-0.00010371713897260405,"(0.0, 0.0, 0.0, 0.0, 0.0, 0.0, 0.0, 0.0, 0.0, 0.0, 0.0, 0.0, 0.0, 0.0, 0.0)"
2023/03/04/12:22:01.107638,240156,1668508958,923437757,,238.70725435264737,181.15742872756232,0.0,0.0,0.0,0.06132522694116079,-0.9981178370015311,0.006343026269377122,-0.0007823956160551176,0.0,0.0,0.0,-0.0001056159608119805,"(0.0, 0.0, 0.0, 0.0, 0.0, 0.0, 0.0, 0.0, 0.0, 0.0, 0.0, 0.0, 0.0, 0.0, 0.0)"
2023/03/04/12:22:01.107687,240157,1668508958,933368629,,238.7073035207522,181.157420375811,0.0,0.0,0.0,0.06132576239048004,-0.9981178041029157,0.006412665023231051,-0.0007909923582250085,0.0,0.0,0.0,-0.00010671953166718359,"(0.0, 0.0, 0.0, 0.0, 0.0, 0.0, 0.0, 0.0, 0.0, 0.0, 0.0, 0.0, 0.0, 0.0, 0.0)"
2023/03/04/12:22:01.107750,240158,1668508958,943176884,,238.70719843354706,181.1577064206467,0.0,0.0,0.0,0.06133053821990374,-0.9981175106577667,0.0065069177983897745,-0.0008026815094967491,0.0,0.0,0.0,-0.00010820811696150738,"(0.0, 0.0, 0.0, 0.0, 0.0, 0.0, 0.0, 0.0, 0.0, 0.0, 0.0, 0.0, 0.0, 0.0, 0.0)"
2023/03/04/12:22:01.107802,240159,1668508958,953219716,,238.70726987077532,181.15769432912094,0.0,0.0,0.0,0.06133110948163272,-0.9981174755557344,0.006604495222667627,-0.0008147261576183024,0.0,0.0,0.0,-0.000109733902352333,"(0.0, 0.0, 0.0, 0.0, 0.0, 0.0, 0.0, 0.0, 0.0, 0.0, 0.0, 0.0, 0.0, 0.0, 0.0)"
2023/03/04/12:22:01.107825,240160,1668508958,963214621,,238.7071667046091,181.15797299640397,0.0,0.0,0.0,0.06133406107125511,-0.9981172941856621,0.006736736111944204,-0.000831079755672637,0.0,0.0,0.0,-0.00011184674944175338,"(0.0, 0.0, 0.0, 0.0, 0.0, 0.0, 0.0, 0.0, 0.0, 0.0, 0.0, 0.0, 0.0, 0.0, 0.0)"
2023/03/04/12:22:01.151601,240161,1668508958,973115629,,238.70724069980582,181.1579602901586,0.0,0.0,0.0,0.061334658530604456,-0.9981172574717533,0.006855371166418353,-0.0008457235417306096,0.0,0.0,0.0,-0.00011371700945303325,"(0.0, 0.0, 0.0, 0.0, 0.0, 0.0, 0.0, 0.0, 0.0, 0.0, 0.0, 0.0, 0.0, 0.0, 0.0)"
2023/03/04/12:22:01.151660,240162,1668508958,983038682,,238.7067825543803,181.15829709091395,0.0,0.0,0.0,0.06133571772498656,-0.9981171923833196,0.005969626934592697,-0.0007364651876291336,0.0,0.0,0.0,-9.944174471135313e-05,"(0.0, 0.0, 0.0, 0.0, 0.0, 0.0, 0.0, 0.0, 0.0, 0.0, 0.0, 0.0, 0.0, 0.0, 0.0)"
2023/03/04/12:22:01.191402,240163,1668508958,993063193,,238.70685515233,181.1582842304919,0.0,0.0,0.0,0.06133630038671041,-0.9981171565777592,0.006174244128748928,-0.0007617158656578308,0.0,0.0,0.0,-0.00010286664455314487,"(0.0, 0.0, 0.0, 0.0, 0.0, 0.0, 0.0, 0.0, 0.0, 0.0, 0.0, 0.0, 0.0, 0.0, 0.0)"
2023/03/04/12:22:01.191473,240164,1668508959,3068023,,238.70676136398365,181.15871573155997,0.0,0.0,0.0,0.061353617091824984,-0.9981160922807275,0.006310766598050097,-0.0007787809382838503,0.0,0.0,0.0,-0.0001050819755450886,"(0.0, 0.0, 0.0, 0.0, 0.0, 0.0, 0.0, 0.0, 0.0, 0.0, 0.0, 0.0, 0.0, 0.0, 0.0)"
2023/03/04/12:22:01.191543,240165,1668508959,13370649,,238.7068258235883,181.15870483759198,0.0,0.0,0.0,0.061354173695562675,-0.9981160580664629,0.006420196646546209,-0.0007922924366000398,0.0,0.0,0.0,-0.00010681915153876408,"(0.0, 0.0, 0.0, 0.0, 0.0, 0.0, 0.0, 0.0, 0.0, 0.0, 0.0, 0.0, 0.0, 0.0, 0.0)"
2023/03/04/12:22:01.191582,240166,1668508959,23382461,,238.70673148626395,181.15911935646008,0.0,0.0,0.0,0.0613660469000527,-0.9981153281499391,0.0065540681258188516,-0.0008089713192913579,0.0,0.0,0.0,-0.00010897191364639991,"(0.0, 0.0, 0.0, 0.0, 0.0, 0.0, 0.0, 0.0, 0.0, 0.0, 0.0, 0.0, 0.0, 0.0, 0.0)"
2023/03/04/12:22:01.191644,240167,1668508959,33234024,,238.7067853252642,181.15911011719672,0.0,0.0,0.0,0.06136660495680296,-0.9981152938393819,0.006635788269812255,-0.0008190656035387916,0.0,0.0,0.0,-0.0001102715446605757,"(0.0, 0.0, 0.0, 0.0, 0.0, 0.0, 0.0, 0.0, 0.0, 0.0, 0.0, 0.0, 0.0, 0.0, 0.0)"
2023/03/04/12:22:01.191694,240168,1668508959,43189935,,238.7066866683861,181.15948128700163,0.0,0.0,0.0,0.061361027316049054,-0.9981156367509323,0.006764659309990027,-0.0008348955993255741,0.0,0.0,0.0,-0.00011234181405548617,"(0.0, 0.0, 0.0, 0.0, 0.0, 0.0, 0.0, 0.0, 0.0, 0.0, 0.0, 0.0, 0.0, 0.0, 0.0)"
2023/03/04/12:22:01.191727,240169,1668508959,53373740,,238.70676610583726,181.15946743008024,0.0,0.0,0.0,0.06136163828141096,-0.9981155991905052,0.006900611907280306,-0.0008516834726348178,0.0,0.0,0.0,-0.00011450723437789005,"(0.0, 0.0, 0.0, 0.0, 0.0, 0.0, 0.0, 0.0, 0.0, 0.0, 0.0, 0.0, 0.0, 0.0, 0.0)"
2023/03/04/12:22:01.191756,240170,1668508959,63348896,,238.70633547883142,181.1598964065556,0.0,0.0,0.0,0.06135639895580942,-0.998115921277271,0.006146498683371284,-0.0007585442195968171,0.0,0.0,0.0,-0.00010243969382865647,"(0.0, 0.0, 0.0, 0.0, 0.0, 0.0, 0.0, 0.0, 0.0, 0.0, 0.0, 0.0, 0.0, 0.0, 0.0)"
2023/03/04/12:22:01.191962,240171,1668508959,73226203,,238.7064103144532,181.1598832559202,0.0,0.0,0.0,0.061356967127494826,-0.9981158863503353,0.006283922181454686,-0.000775511024328786,0.0,0.0,0.0,-0.0001047049589297598,"(0.0, 0.0, 0.0, 0.0, 0.0, 0.0, 0.0, 0.0, 0.0, 0.0, 0.0, 0.0, 0.0, 0.0, 0.0)"
2023/03/04/12:22:01.192031,240172,1668508959,83336036,,238.70628538055,181.16025476904522,0.0,0.0,0.0,0.06135282180615224,-0.9981161411661583,0.006261708386243828,-0.0007727167730928236,0.0,0.0,0.0,-0.00010424882735899277,"(0.0, 0.0, 0.0, 0.0, 0.0, 0.0, 0.0, 0.0, 0.0, 0.0, 0.0, 0.0, 0.0, 0.0, 0.0)"
2023/03/04/12:22:01.192078,240173,1668508959,93369622,,238.70637461398996,181.16023871706136,0.0,0.0,0.0,0.06135344866497968,-0.9981161026338137,0.006492847294786686,-0.0008012484047118151,0.0,0.0,0.0,-0.00010807792945832041,"(0.0, 0.0, 0.0, 0.0, 0.0, 0.0, 0.0, 0.0, 0.0, 0.0, 0.0, 0.0, 0.0, 0.0, 0.0)"
2023/03/04/12:22:01.192194,240174,1668508959,103167164,,238.7062767612783,181.16057148674136,0.0,0.0,0.0,0.061336320329686354,-0.9981171553522232,0.006632487429289177,-0.0008182495637779083,0.0,0.0,0.0,-0.00011032845002555825,"(0.0, 0.0, 0.0, 0.0, 0.0, 0.0, 0.0, 0.0, 0.0, 0.0, 0.0, 0.0, 0.0, 0.0, 0.0)"
2023/03/04/12:22:01.255821,240175,1668508959,113366853,,238.7063516506259,181.16055852951916,0.0,0.0,0.0,0.06133692332495394,-0.9981171182967602,0.006777655486102802,-0.0008361672518146489,0.0,0.0,0.0,-0.0001126607777504998,"(0.0, 0.0, 0.0, 0.0, 0.0, 0.0, 0.0, 0.0, 0.0, 0.0, 0.0, 0.0, 0.0, 0.0, 0.0)"
2023/03/04/12:22:01.255909,240176,1668508959,123411737,,238.7062554499807,181.1608964641301,0.0,0.0,0.0,0.06132379879848294,-0.9981179247468323,0.006884984563901322,-0.000849224744686002,0.0,0.0,0.0,-0.00011434639880954121,"(0.0, 0.0, 0.0, 0.0, 0.0, 0.0, 0.0, 0.0, 0.0, 0.0, 0.0, 0.0, 0.0, 0.0, 0.0)"
2023/03/04/12:22:01.255956,240177,1668508959,133377393,,238.70630666282563,181.16088790270368,0.0,0.0,0.0,0.061324365307495625,-0.9981178899406787,0.006933879439928479,-0.000855263647835514,0.0,0.0,0.0,-0.00011508122036222697,"(0.0, 0.0, 0.0, 0.0, 0.0, 0.0, 0.0, 0.0, 0.0, 0.0, 0.0, 0.0, 0.0, 0.0, 0.0)"
2023/03/04/12:22:01.255980,240178,1668508959,143194736,,238.70588311959833,181.1612877507169,0.0,0.0,0.0,0.06131368530726572,-0.9981185460625615,0.006189225806385915,-0.0007632794189835365,0.0,0.0,0.0,-0.00010319230908396808,"(0.0, 0.0, 0.0, 0.0, 0.0, 0.0, 0.0, 0.0, 0.0, 0.0, 0.0, 0.0, 0.0, 0.0, 0.0)"
2023/03/04/12:22:01.256021,240179,1668508959,153274132,,238.7059520038412,181.16127595526817,0.0,0.0,0.0,0.0613142445357535,-0.9981185117094111,0.0063061604883674705,-0.0007777074330900896,0.0,0.0,0.0,-0.00010510646257920565,"(0.0, 0.0, 0.0, 0.0, 0.0, 0.0, 0.0, 0.0, 0.0, 0.0, 0.0, 0.0, 0.0, 0.0, 0.0)"
2023/03/04/12:22:01.256110,240180,1668508959,163191802,,238.70585962485035,181.16161740943036,0.0,0.0,0.0,0.06130623650157591,-0.9981190036092955,0.006425388470593799,-0.0007923065562838786,0.0,0.0,0.0,-0.0001070217629505572,"(0.0, 0.0, 0.0, 0.0, 0.0, 0.0, 0.0, 0.0, 0.0, 0.0, 0.0, 0.0, 0.0, 0.0, 0.0)"
2023/03/04/12:22:01.256157,240181,1668508959,173214372,,238.70593234317172,181.16160473268508,0.0,0.0,0.0,0.061306815078683664,-0.9981189680718968,0.006549139438314454,-0.0008075738402804236,0.0,0.0,0.0,-0.00010900102617551194,"(0.0, 0.0, 0.0, 0.0, 0.0, 0.0, 0.0, 0.0, 0.0, 0.0, 0.0, 0.0, 0.0, 0.0, 0.0)"
2023/03/04/12:22:01.262028,240182,1668508959,183336312,,238.7058134393493,181.16195080608054,0.0,0.0,0.0,0.06130027350516916,-0.9981193698492137,0.006525290474681918,-0.0008045461939435032,0.0,0.0,0.0,-0.00010850999726816087,"(0.0, 0.0, 0.0, 0.0, 0.0, 0.0, 0.0, 0.0, 0.0, 0.0, 0.0, 0.0, 0.0, 0.0, 0.0)"
2023/03/04/12:22:01.271794,240183,1668508959,193398043,,238.70591375963906,181.16193277917242,0.0,0.0,0.0,0.0613009254937781,-0.998119329806615,0.006755251278869855,-0.0008329085409578402,0.0,0.0,0.0,-0.00011230162833736152,"(0.0, 0.0, 0.0, 0.0, 0.0, 0.0, 0.0, 0.0, 0.0, 0.0, 0.0, 0.0, 0.0, 0.0, 0.0)"
2023/03/04/12:22:01.329387,240184,1668508959,203342938,,238.70582626204933,181.16224126848024,0.0,0.0,0.0,0.061282088096598734,-0.9981204865538632,0.006903741945486095,-0.0008509525863941888,0.0,0.0,0.0,-0.00011468712579995724,"(0.0, 0.0, 0.0, 0.0, 0.0, 0.0, 0.0, 0.0, 0.0, 0.0, 0.0, 0.0, 0.0, 0.0, 0.0)"
2023/03/04/12:22:01.329437,240185,1668508959,213370445,,238.70590668217642,181.16222739607883,0.0,0.0,0.0,0.0612827185904306,-0.9981204478429274,0.007057764033302631,-0.0008699463418923056,0.0,0.0,0.0,-0.00011715349266802944,"(0.0, 0.0, 0.0, 0.0, 0.0, 0.0, 0.0, 0.0, 0.0, 0.0, 0.0, 0.0, 0.0, 0.0, 0.0)"
2023/03/04/12:22:01.329473,240186,1668508959,223411084,,238.7054828169291,181.16260335090413,0.0,0.0,0.0,0.06126788441248526,-0.9981213585229094,0.006302644046713181,-0.0007766793865128715,0.0,0.0,0.0,-0.00010509609700563876,"(0.0, 0.0, 0.0, 0.0, 0.0, 0.0, 0.0, 0.0, 0.0, 0.0, 0.0, 0.0, 0.0, 0.0, 0.0)"
2023/03/04/12:22:01.329500,240187,1668508959,233221094,,238.70553603162782,181.16259436604673,0.0,0.0,0.0,0.06126842255625007,-0.9981213254897767,0.006368816691424082,-0.0007848408612740893,0.0,0.0,0.0,-0.00010618149649422756,"(0.0, 0.0, 0.0, 0.0, 0.0, 0.0, 0.0, 0.0, 0.0, 0.0, 0.0, 0.0, 0.0, 0.0, 0.0)"
2023/03/04/12:22:01.329522,240188,1668508959,243260706,,238.7054557034737,181.16294304286788,0.0,0.0,0.0,0.061270927267242176,-0.9981211717380872,0.006490736041309902,-0.0007998982752068124,0.0,0.0,0.0,-0.00010815525865684298,"(0.0, 0.0, 0.0, 0.0, 0.0, 0.0, 0.0, 0.0, 0.0, 0.0, 0.0, 0.0, 0.0, 0.0, 0.0)"
2023/03/04/12:22:01.354913,240189,1668508959,253397422,,238.70552580982675,181.1629309689939,0.0,0.0,0.0,0.061271507713070335,-0.9981211361065184,0.006612917769488901,-0.0008149633824012181,0.0,0.0,0.0,-0.00011010673826921301,"(0.0, 0.0, 0.0, 0.0, 0.0, 0.0, 0.0, 0.0, 0.0, 0.0, 0.0, 0.0, 0.0, 0.0, 0.0)"
2023/03/04/12:22:01.354947,240190,1668508959,263333131,,238.70544791123723,181.16327239081136,0.0,0.0,0.0,0.061272700151766016,-0.9981210629057539,0.006756264773867548,-0.0008326455823930799,0.0,0.0,0.0,-0.00011241590127490836,"(0.0, 0.0, 0.0, 0.0, 0.0, 0.0, 0.0, 0.0, 0.0, 0.0, 0.0, 0.0, 0.0, 0.0, 0.0)"
2023/03/04/12:22:01.354984,240191,1668508959,273222220,,238.70552812217625,181.16325844264566,0.0,0.0,0.0,0.061273319238947424,-0.9981210249010097,0.0069047998509027715,-0.0008509598180254633,0.0,0.0,0.0,-0.00011480134529444556,"(0.0, 0.0, 0.0, 0.0, 0.0, 0.0, 0.0, 0.0, 0.0, 0.0, 0.0, 0.0, 0.0, 0.0, 0.0)"
2023/03/04/12:22:01.361802,240192,1668508959,283335629,,238.70541742798483,181.16360013798507,0.0,0.0,0.0,0.06127347006059473,-0.9981210156422584,0.006878830414528044,-0.0008477614089182616,0.0,0.0,0.0,-0.00011426908244930917,"(0.0, 0.0, 0.0, 0.0, 0.0, 0.0, 0.0, 0.0, 0.0, 0.0, 0.0, 0.0, 0.0, 0.0, 0.0)"
2023/03/04/12:22:01.376479,240193,1668508959,293363701,,238.7055082022333,181.16358408238506,0.0,0.0,0.0,0.06127414078207132,-0.998120974467233,0.007108828992671556,-0.0008761166126002269,0.0,0.0,0.0,-0.00011804329327523764,"(0.0, 0.0, 0.0, 0.0, 0.0, 0.0, 0.0, 0.0, 0.0, 0.0, 0.0, 0.0, 0.0, 0.0, 0.0)"
2023/03/04/12:22:01.381684,240194,1668508959,303229134,,238.7050860593465,181.16397646905662,0.0,0.0,0.0,0.061273173668381205,-0.998121033837382,0.006341875941232786,-0.0007815821959407164,0.0,0.0,0.0,-0.00010578734995100476,"(0.0, 0.0, 0.0, 0.0, 0.0, 0.0, 0.0, 0.0, 0.0, 0.0, 0.0, 0.0, 0.0, 0.0, 0.0)"
2023/03/04/12:22:01.417723,240195,1668508959,313254406,,238.70515966530053,181.16396347107502,0.0,0.0,0.0,0.06127376164413049,-0.9981209977422468,0.006489600929514471,-0.0007997958045230735,0.0,0.0,0.0,-0.00010822243961033385,"(0.0, 0.0, 0.0, 0.0, 0.0, 0.0, 0.0, 0.0, 0.0, 0.0, 0.0, 0.0, 0.0, 0.0, 0.0)"
2023/03/04/12:22:01.417756,240196,1668508959,323193748,,238.7050828210674,181.16428877538084,0.0,0.0,0.0,0.061272863640207474,-0.9981210528695047,0.006638349905379591,-0.0008181159004153062,0.0,0.0,0.0,-0.00011063650026625357,"(0.0, 0.0, 0.0, 0.0, 0.0, 0.0, 0.0, 0.0, 0.0, 0.0, 0.0, 0.0, 0.0, 0.0, 0.0)"
2023/03/04/12:22:01.417797,240197,1668508959,333183741,,238.705139809738,181.16427922948714,0.0,0.0,0.0,0.06127342899546898,-0.9981210181631971,0.006709906853095271,-0.0008269423563379221,0.0,0.0,0.0,-0.00011176685372447691,"(0.0, 0.0, 0.0, 0.0, 0.0, 0.0, 0.0, 0.0, 0.0, 0.0, 0.0, 0.0, 0.0, 0.0, 0.0)"
2023/03/04/12:22:01.421631,240198,1668508959,343155886,,238.7050709433349,181.1646292972152,0.0,0.0,0.0,0.06128566581493334,-0.9981202668845174,0.006838157063730844,-0.0008429183859810232,0.0,0.0,0.0,-0.00011383175369609395,"(0.0, 0.0, 0.0, 0.0, 0.0, 0.0, 0.0, 0.0, 0.0, 0.0, 0.0, 0.0, 0.0, 0.0, 0.0)"
2023/03/04/12:22:01.431703,240199,1668508959,353225172,,238.70515246382737,181.16461519526598,0.0,0.0,0.0,0.061286292993035486,-0.9981202283749047,0.006988796420347975,-0.000861496148080442,0.0,0.0,0.0,-0.0001162525352092189,"(0.0, 0.0, 0.0, 0.0, 0.0, 0.0, 0.0, 0.0, 0.0, 0.0, 0.0, 0.0, 0.0, 0.0, 0.0)"
2023/03/04/12:22:01.441771,240200,1668508959,363200432,,238.70508208966862,181.16495265223986,0.0,0.0,0.0,0.06129456220659963,-0.9981197205966332,0.007118485013808199,-0.0008776023665183732,0.0,0.0,0.0,-0.0001183124208966436,"(0.0, 0.0, 0.0, 0.0, 0.0, 0.0, 0.0, 0.0, 0.0, 0.0, 0.0, 0.0, 0.0, 0.0, 0.0)"
2023/03/04/12:22:01.451678,240201,1668508959,373215258,,238.70516335930967,181.16493881435144,0.0,0.0,0.0,0.06129520068651389,-0.9981196813873575,0.007252392664224998,-0.000894120589588195,0.0,0.0,0.0,-0.00012043224937237284,"(0.0, 0.0, 0.0, 0.0, 0.0, 0.0, 0.0, 0.0, 0.0, 0.0, 0.0, 0.0, 0.0, 0.0, 0.0)"
2023/03/04/12:22:01.461826,240202,1668508959,383327539,,238.70471726284063,181.1653645796158,0.0,0.0,0.0,0.061313506224415684,-0.9981185570634725,0.0063181244773829375,-0.0007791734031669811,0.0,0.0,0.0,-0.0001053889516146181,"(0.0, 0.0, 0.0, 0.0, 0.0, 0.0, 0.0, 0.0, 0.0, 0.0, 0.0, 0.0, 0.0, 0.0, 0.0)"
2023/03/04/12:22:01.471668,240203,1668508959,393219217,,238.70478688739033,181.1653524499408,0.0,0.0,0.0,0.06131410507285529,-0.9981185202765827,0.006507005215473656,-0.0008024747690903462,0.0,0.0,0.0,-0.00010853596477479184,"(0.0, 0.0, 0.0, 0.0, 0.0, 0.0, 0.0, 0.0, 0.0, 0.0, 0.0, 0.0, 0.0, 0.0, 0.0)"
2023/03/04/12:22:01.487419,240204,1668508959,403159764,,238.70470770252766,181.165695186189,0.0,0.0,0.0,0.06132726879664414,-0.9981177115460602,0.006612534750310593,-0.0008156662449477244,0.0,0.0,0.0,-0.00011021246245756383,"(0.0, 0.0, 0.0, 0.0, 0.0, 0.0, 0.0, 0.0, 0.0, 0.0, 0.0, 0.0, 0.0, 0.0, 0.0)"
2023/03/04/12:22:01.527233,240205,1668508959,413355297,,238.70477799710872,181.1656833124351,0.0,0.0,0.0,0.06132785147687724,-0.9981176757443133,0.006715397177346915,-0.0008283624420958873,0.0,0.0,0.0,-0.00011183144184622144,"(0.0, 0.0, 0.0, 0.0, 0.0, 0.0, 0.0, 0.0, 0.0, 0.0, 0.0, 0.0, 0.0, 0.0, 0.0)"
2023/03/04/12:22:01.527281,240206,1668508959,423436092,,238.70469755737787,181.16601280822934,0.0,0.0,0.0,0.06133681041355068,-0.9981171252354566,0.006806013058613189,-0.0008396641952761406,0.0,0.0,0.0,-0.000113239439822225,"(0.0, 0.0, 0.0, 0.0, 0.0, 0.0, 0.0, 0.0, 0.0, 0.0, 0.0, 0.0, 0.0, 0.0, 0.0)"
2023/03/04/12:22:01.527297,240207,1668508959,433153426,,238.7047408786628,181.16600586883618,0.0,0.0,0.0,0.0613373615148111,-0.9981170913687438,0.006840819430360191,-0.0008439659590765837,0.0,0.0,0.0,-0.000113737410625441,"(0.0, 0.0, 0.0, 0.0, 0.0, 0.0, 0.0, 0.0, 0.0, 0.0, 0.0, 0.0, 0.0, 0.0, 0.0)"
2023/03/04/12:22:01.527331,240208,1668508959,443358184,,238.70451084921484,181.16618269761145,0.0,0.0,0.0,0.06133768548557288,-0.9981170714596925,0.006966772208057064,-0.000859509603656204,0.0,0.0,0.0,-0.00011575573765450817,"(0.0, 0.0, 0.0, 0.0, 0.0, 0.0, 0.0, 0.0, 0.0, 0.0, 0.0, 0.0, 0.0, 0.0, 0.0)"
2023/03/04/12:22:01.531835,240209,1668508959,453382205,,238.70458732172108,181.16616956165316,0.0,0.0,0.0,0.06133830817295611,-0.9981170331932421,0.00709832025973336,-0.0008757480355280583,0.0,0.0,0.0,-0.00011784041758869233,"(0.0, 0.0, 0.0, 0.0, 0.0, 0.0, 0.0, 0.0, 0.0, 0.0, 0.0, 0.0, 0.0, 0.0, 0.0)"
2023/03/04/12:22:01.556769,240210,1668508959,463249985,,238.70401424184706,181.16640581659513,0.0,0.0,0.0,0.0613376499185426,-0.9981170736454067,0.006300238172866439,-0.0007772770341041972,0.0,0.0,0.0,-0.00010505492923610802,"(0.0, 0.0, 0.0, 0.0, 0.0, 0.0, 0.0, 0.0, 0.0, 0.0, 0.0, 0.0, 0.0, 0.0, 0.0)"
2023/03/04/12:22:01.556803,240211,1668508959,473221838,,238.7040772617053,181.1663951470891,0.0,0.0,0.0,0.0613381944540406,-0.9981170401817205,0.006386936128926711,-0.0007879802650978994,0.0,0.0,0.0,-0.00010644760781056659,"(0.0, 0.0, 0.0, 0.0, 0.0, 0.0, 0.0, 0.0, 0.0, 0.0, 0.0, 0.0, 0.0, 0.0, 0.0)"
2023/03/04/12:22:01.561872,240212,1668508959,483316467,,238.70382356047094,181.16657189433505,0.0,0.0,0.0,0.06133773346487913,-0.9981170685112,0.006362881261653521,-0.0007850065589351742,0.0,0.0,0.0,-0.00010596128373232078,"(0.0, 0.0, 0.0, 0.0, 0.0, 0.0, 0.0, 0.0, 0.0, 0.0, 0.0, 0.0, 0.0, 0.0, 0.0)"
2023/03/04/12:22:01.571733,240213,1668508959,493349704,,238.7039001252983,181.16655848828637,0.0,0.0,0.0,0.06133834650970675,-0.9981170308372938,0.006562111076215331,-0.0008095942851667228,0.0,0.0,0.0,-0.00010924076130527382,"(0.0, 0.0, 0.0, 0.0, 0.0, 0.0, 0.0, 0.0, 0.0, 0.0, 0.0, 0.0, 0.0, 0.0, 0.0)"
2023/03/04/12:22:01.581760,240214,1668508959,503185585,,238.70368210488627,181.16672624384103,0.0,0.0,0.0,0.06133772883659376,-0.998117068795624,0.006702955488967974,-0.0008269624098193567,0.0,0.0,0.0,-0.00011151133278683822,"(0.0, 0.0, 0.0, 0.0, 0.0, 0.0, 0.0, 0.0, 0.0, 0.0, 0.0, 0.0, 0.0, 0.0, 0.0)"
2023/03/04/12:22:01.591770,240215,1668508959,513350659,,238.70375794171827,181.1667131890125,0.0,0.0,0.0,0.06133832440917137,-0.9981170321954611,0.006820296890505315,-0.0008414474106608822,0.0,0.0,0.0,-0.00011336728504302327,"(0.0, 0.0, 0.0, 0.0, 0.0, 0.0, 0.0, 0.0, 0.0, 0.0, 0.0, 0.0, 0.0, 0.0, 0.0)"
2023/03/04/12:22:01.658468,240216,1668508959,523352026,,238.7035389371021,181.16687936361882,0.0,0.0,0.0,0.061337519037576296,-0.9981170816884736,0.00695609127902549,-0.0008581895131045443,0.0,0.0,0.0,-0.00011553657574407247,"(0.0, 0.0, 0.0, 0.0, 0.0, 0.0, 0.0, 0.0, 0.0, 0.0, 0.0, 0.0, 0.0, 0.0, 0.0)"
2023/03/04/12:22:01.658514,240217,1668508959,533233952,,238.7035915518246,181.1668703904515,0.0,0.0,0.0,0.06133810340801356,-0.9981170457768507,0.007034965146309763,-0.0008679287325100534,0.0,0.0,0.0,-0.00011677723739327673,"(0.0, 0.0, 0.0, 0.0, 0.0, 0.0, 0.0, 0.0, 0.0, 0.0, 0.0, 0.0, 0.0, 0.0, 0.0)"
2023/03/04/12:22:01.658557,240218,1668508959,543195354,,238.70303613131316,181.16706486479163,0.0,0.0,0.0,0.061323179370796066,-0.9981179628039248,0.006277236794348448,-0.0007742545107813171,0.0,0.0,0.0,-0.00010468116202085146,"(0.0, 0.0, 0.0, 0.0, 0.0, 0.0, 0.0, 0.0, 0.0, 0.0, 0.0, 0.0, 0.0, 0.0, 0.0)"
2023/03/04/12:22:01.658597,240219,1668508959,553359897,,238.70311192607508,181.1670515909888,0.0,0.0,0.0,0.061323760126598834,-0.9981179271228101,0.0064240332145288955,-0.0007923684412608434,0.0,0.0,0.0,-0.00010710254575714563,"(0.0, 0.0, 0.0, 0.0, 0.0, 0.0, 0.0, 0.0, 0.0, 0.0, 0.0, 0.0, 0.0, 0.0, 0.0)"
2023/03/04/12:22:01.658734,240220,1668508959,563388468,,238.70290168211773,181.16719087184092,0.0,0.0,0.0,0.06131299675981143,-0.9981185883592848,0.006574154173742527,-0.0008107410753944409,0.0,0.0,0.0,-0.00010954321939556453,"(0.0, 0.0, 0.0, 0.0, 0.0, 0.0, 0.0, 0.0, 0.0, 0.0, 0.0, 0.0, 0.0, 0.0, 0.0)"
2023/03/04/12:22:01.658873,240221,1668508959,573219006,,238.7029762285894,181.16717803154222,0.0,0.0,0.0,0.061313577472749424,-0.9981185526867503,0.006673215337348458,-0.0008229654280990243,0.0,0.0,0.0,-0.00011109690584916103,"(0.0, 0.0, 0.0, 0.0, 0.0, 0.0, 0.0, 0.0, 0.0, 0.0, 0.0, 0.0, 0.0, 0.0, 0.0)"
2023/03/04/12:22:01.661871,240222,1668508959,583410661,,238.70273440450092,181.16732817931143,0.0,0.0,0.0,0.061305333586694655,-0.9981190590675163,0.006648032847652616,-0.0008197483431651638,0.0,0.0,0.0,-0.00011058372335992312,"(0.0, 0.0, 0.0, 0.0, 0.0, 0.0, 0.0, 0.0, 0.0, 0.0, 0.0, 0.0, 0.0, 0.0, 0.0)"
2023/03/04/12:22:01.705480,240223,1668508959,593209289,,238.7028122971288,181.1673144772851,0.0,0.0,0.0,0.061305950403092155,-0.9981190211819297,0.006816097503970815,-0.0008404804279803331,0.0,0.0,0.0,-0.00011331696053831364,"(0.0, 0.0, 0.0, 0.0, 0.0, 0.0, 0.0, 0.0, 0.0, 0.0, 0.0, 0.0, 0.0, 0.0, 0.0)"
2023/03/04/12:22:01.705530,240224,1668508959,603206282,,238.70261352221075,181.16745950118954,0.0,0.0,0.0,0.061299686967359296,-0.9981194058717142,0.006947795729161033,-0.0008566313696933373,0.0,0.0,0.0,-0.00011541792274558912,"(0.0, 0.0, 0.0, 0.0, 0.0, 0.0, 0.0, 0.0, 0.0, 0.0, 0.0, 0.0, 0.0, 0.0, 0.0)"
2023/03/04/12:22:01.766042,240225,1668508959,613332534,,238.70270101509658,181.16744421243686,0.0,0.0,0.0,0.06130031810242103,-0.998119367110238,0.007084214108939588,-0.0008734602259109353,0.0,0.0,0.0,-0.00011758354993291254,"(0.0, 0.0, 0.0, 0.0, 0.0, 0.0, 0.0, 0.0, 0.0, 0.0, 0.0, 0.0, 0.0, 0.0, 0.0)"
2023/03/04/12:22:01.766255,240226,1668508959,623410781,,238.70215861865614,181.16765314207385,0.0,0.0,0.0,0.061294924433390796,-0.9981196983522092,0.006334187722022161,-0.0007809149486836813,0.0,0.0,0.0,-0.00010562008860226717,"(0.0, 0.0, 0.0, 0.0, 0.0, 0.0, 0.0, 0.0, 0.0, 0.0, 0.0, 0.0, 0.0, 0.0, 0.0)"
2023/03/04/12:22:01.766301,240227,1668508959,633253079,,238.7022131394924,181.16764370853144,0.0,0.0,0.0,0.06129546427443994,-0.9981196652002108,0.006401306411096449,-0.0007891967548153081,0.0,0.0,0.0,-0.00010671845714897562,"(0.0, 0.0, 0.0, 0.0, 0.0, 0.0, 0.0, 0.0, 0.0, 0.0, 0.0, 0.0, 0.0, 0.0, 0.0)"
2023/03/04/12:22:01.766331,240228,1668508959,643206176,,238.70201132839549,181.1677924031161,0.0,0.0,0.0,0.06129161891428186,-0.9981199013399474,0.006518762122710421,-0.0008036265049679401,0.0,0.0,0.0,-0.00010861473200713885,"(0.0, 0.0, 0.0, 0.0, 0.0, 0.0, 0.0, 0.0, 0.0, 0.0, 0.0, 0.0, 0.0, 0.0, 0.0)"
2023/03/04/12:22:01.766361,240229,1668508959,653307416,,238.7020879737606,181.16777917239375,0.0,0.0,0.0,0.06129221273561734,-0.9981198648749416,0.006649982233555278,-0.0008198112225366525,0.0,0.0,0.0,-0.00011071855172144114,"(0.0, 0.0, 0.0, 0.0, 0.0, 0.0, 0.0, 0.0, 0.0, 0.0, 0.0, 0.0, 0.0, 0.0, 0.0)"
2023/03/04/12:22:01.803193,240230,1668508959,663395236,,238.70189117804222,181.16792713668764,0.0,0.0,0.0,0.06128909406225506,-0.9981200563805078,0.006780868685696581,-0.0008359039138970936,0.0,0.0,0.0,-0.00011281461459374099,"(0.0, 0.0, 0.0, 0.0, 0.0, 0.0, 0.0, 0.0, 0.0, 0.0, 0.0, 0.0, 0.0, 0.0, 0.0)"
2023/03/04/12:22:01.803234,240231,1668508959,673217417,,238.70197508359658,181.167912467069,0.0,0.0,0.0,0.06128971658920157,-0.9981200181543377,0.006928369787184676,-0.0008540957190455814,0.0,0.0,0.0,-0.00011517966564939166,"(0.0, 0.0, 0.0, 0.0, 0.0, 0.0, 0.0, 0.0, 0.0, 0.0, 0.0, 0.0, 0.0, 0.0, 0.0)"
2023/03/04/12:22:01.803249,240232,1668508959,683164366,,238.70174720543116,181.168066303488,0.0,0.0,0.0,0.06128703215113996,-0.9981201829890552,0.0068989052229500285,-0.0008504257978770305,0.0,0.0,0.0,-0.00011458949512662827,"(0.0, 0.0, 0.0, 0.0, 0.0, 0.0, 0.0, 0.0, 0.0, 0.0, 0.0, 0.0, 0.0, 0.0, 0.0)"
2023/03/04/12:22:01.803317,240233,1668508959,693178522,,238.70182967012494,181.16805205569653,0.0,0.0,0.0,0.06128769232207739,-0.9981201424527182,0.007118527311880624,-0.0008775081008673822,0.0,0.0,0.0,-0.00011818205431778336,"(0.0, 0.0, 0.0, 0.0, 0.0, 0.0, 0.0, 0.0, 0.0, 0.0, 0.0, 0.0, 0.0, 0.0, 0.0)"
2023/03/04/12:22:01.803422,240234,1668508959,703333780,,238.70130129363065,181.1682591047709,0.0,0.0,0.0,0.061284975288817684,-0.9981203092833293,0.006378768428912236,-0.0007862820154460118,0.0,0.0,0.0,-0.00010639555222188493,"(0.0, 0.0, 0.0, 0.0, 0.0, 0.0, 0.0, 0.0, 0.0, 0.0, 0.0, 0.0, 0.0, 0.0, 0.0)"
2023/03/04/12:22:01.848649,240235,1668508959,713186227,,238.7013644331826,181.16824852509203,0.0,0.0,0.0,0.06128550426363945,-0.9981202768039288,0.006408092089529239,-0.0007899035062484431,0.0,0.0,0.0,-0.0001068069016042009,"(0.0, 0.0, 0.0, 0.0, 0.0, 0.0, 0.0, 0.0, 0.0, 0.0, 0.0, 0.0, 0.0, 0.0, 0.0)"
2023/03/04/12:22:01.848711,240236,1668508959,723383883,,238.70118066723032,181.16839290871738,0.0,0.0,0.0,0.06128362814261546,-0.9981203919977177,0.006566170749511556,-0.0008093642604993103,0.0,0.0,0.0,-0.00010938084532927395,"(0.0, 0.0, 0.0, 0.0, 0.0, 0.0, 0.0, 0.0, 0.0, 0.0, 0.0, 0.0, 0.0, 0.0, 0.0)"
2023/03/04/12:22:01.848797,240237,1668508959,733229141,,238.70124103927873,181.16838260804423,0.0,0.0,0.0,0.06128419485621592,-0.9981203572018884,0.006645617530323399,-0.0008191647503126417,0.0,0.0,0.0,-0.00011064432023062898,"(0.0, 0.0, 0.0, 0.0, 0.0, 0.0, 0.0, 0.0, 0.0, 0.0, 0.0, 0.0, 0.0, 0.0, 0.0)"
2023/03/04/12:22:01.848821,240238,1668508959,743170009,,238.70105611816416,181.16869239434055,0.0,0.0,0.0,0.06129909467132805,-0.9981194422475076,0.00677613695235338,-0.0008354584649392673,0.0,0.0,0.0,-0.00011274838691490165,"(0.0, 0.0, 0.0, 0.0, 0.0, 0.0, 0.0, 0.0, 0.0, 0.0, 0.0, 0.0, 0.0, 0.0, 0.0)"
2023/03/04/12:22:01.848963,240239,1668508959,753217951,,238.70113220766476,181.16867939014645,0.0,0.0,0.0,0.06129970412944943,-0.9981194048177011,0.006908541452526874,-0.0008517917384861883,0.0,0.0,0.0,-0.00011485873990517355,"(0.0, 0.0, 0.0, 0.0, 0.0, 0.0, 0.0, 0.0, 0.0, 0.0, 0.0, 0.0, 0.0, 0.0, 0.0)"
2023/03/04/12:22:01.887118,240240,1668508959,763117988,,238.7009498691481,181.16897492964824,0.0,0.0,0.0,0.061309999688171773,-0.9981187724605907,0.007031864323842404,-0.0008671441600496936,0.0,0.0,0.0,-0.00011681366944203229,"(0.0, 0.0, 0.0, 0.0, 0.0, 0.0, 0.0, 0.0, 0.0, 0.0, 0.0, 0.0, 0.0, 0.0, 0.0)"
2023/03/04/12:22:01.887175,240241,1668508959,773193244,,238.70103049976106,181.16896115192657,0.0,0.0,0.0,0.06131063070823461,-0.9981187336996328,0.007162618722612573,-0.0008832775154380182,0.0,0.0,0.0,-0.000118879879352453,"(0.0, 0.0, 0.0, 0.0, 0.0, 0.0, 0.0, 0.0, 0.0, 0.0, 0.0, 0.0, 0.0, 0.0, 0.0)"
2023/03/04/12:22:01.887398,240242,1668508959,783350563,,238.70048124105082,181.16931236058682,0.0,0.0,0.0,0.06131703998271585,-0.9981183399816668,0.00632078144146919,-0.0007795465065187396,0.0,0.0,0.0,-0.00010540872252743277,"(0.0, 0.0, 0.0, 0.0, 0.0, 0.0, 0.0, 0.0, 0.0, 0.0, 0.0, 0.0, 0.0, 0.0, 0.0)"
2023/03/04/12:22:01.887453,240243,1668508959,793332843,,238.70054957979988,181.1693006012126,0.0,0.0,0.0,0.06131761566041164,-0.9981183046161022,0.006458757021229787,-0.0007965706973528836,0.0,0.0,0.0,-0.00010768757853069927,"(0.0, 0.0, 0.0, 0.0, 0.0, 0.0, 0.0, 0.0, 0.0, 0.0, 0.0, 0.0, 0.0, 0.0, 0.0)"
2023/03/04/12:22:01.887491,240244,1668508959,803183517,,238.700364805059,181.16957772714977,0.0,0.0,0.0,0.06132221826682936,-0.998118021852544,0.006598776269321993,-0.0008139013189973868,0.0,0.0,0.0,-0.00010995559618185382,"(0.0, 0.0, 0.0, 0.0, 0.0, 0.0, 0.0, 0.0, 0.0, 0.0, 0.0, 0.0, 0.0, 0.0, 0.0)"
2023/03/04/12:22:01.932348,240245,1668508959,813302113,,238.70042955011837,181.1695667633986,0.0,0.0,0.0,0.06132278622830345,-0.9981179869580539,0.006682862526292191,-0.0008242803443445852,0.0,0.0,0.0,-0.00011125301951214105,"(0.0, 0.0, 0.0, 0.0, 0.0, 0.0, 0.0, 0.0, 0.0, 0.0, 0.0, 0.0, 0.0, 0.0, 0.0)"
2023/03/04/12:22:01.932386,240246,1668508959,823162484,,238.70024107728108,181.16983800888633,0.0,0.0,0.0,0.06132560665350139,-0.9981178136716026,0.006775096040037283,-0.0008356955197670483,0.0,0.0,0.0,-0.00011268987506220573,"(0.0, 0.0, 0.0, 0.0, 0.0, 0.0, 0.0, 0.0, 0.0, 0.0, 0.0, 0.0, 0.0, 0.0, 0.0)"
2023/03/04/12:22:01.932421,240247,1668508959,833203277,,238.70028570093973,181.16983084668553,0.0,0.0,0.0,0.06132615753474219,-0.9981177798246177,0.00681270293887893,-0.000840341895481627,0.0,0.0,0.0,-0.00011323481015250694,"(0.0, 0.0, 0.0, 0.0, 0.0, 0.0, 0.0, 0.0, 0.0, 0.0, 0.0, 0.0, 0.0, 0.0, 0.0)"
2023/03/04/12:22:01.932446,240248,1668508959,843171372,,238.70010784042339,181.1700942529246,0.0,0.0,0.0,0.06132773007744102,-0.9981176832035131,0.00694903537811376,-0.0008571806312529957,0.0,0.0,0.0,-0.00011542639321760116,"(0.0, 0.0, 0.0, 0.0, 0.0, 0.0, 0.0, 0.0, 0.0, 0.0, 0.0, 0.0, 0.0, 0.0, 0.0)"
2023/03/04/12:22:02.047659,240249,1668508959,853388964,,238.7001858862681,181.17008091180287,0.0,0.0,0.0,0.06132835814157515,-0.9981176446129277,0.007093487156659585,-0.0008750081769293708,0.0,0.0,0.0,-0.00011772762026177352,"(0.0, 0.0, 0.0, 0.0, 0.0, 0.0, 0.0, 0.0, 0.0, 0.0, 0.0, 0.0, 0.0, 0.0, 0.0)"
2023/03/04/12:22:02.047721,240250,1668508959,863359366,,238.69966576086077,181.1704013300885,0.0,0.0,0.0,0.061328485275145096,-0.9981176368013223,0.006309407939467576,-0.0007782907040700999,0.0,0.0,0.0,-0.00010518297071698752,"(0.0, 0.0, 0.0, 0.0, 0.0, 0.0, 0.0, 0.0, 0.0, 0.0, 0.0, 0.0, 0.0, 0.0, 0.0)"
2023/03/04/12:22:02.047802,240251,1668508959,873199579,,238.6997364694192,181.170389112321,0.0,0.0,0.0,0.06132905701106192,-0.9981176016713331,0.0064374237655826705,-0.0007940894553400859,0.0,0.0,0.0,-0.00010727837729617698,"(0.0, 0.0, 0.0, 0.0, 0.0, 0.0, 0.0, 0.0, 0.0, 0.0, 0.0, 0.0, 0.0, 0.0, 0.0)"
2023/03/04/12:22:02.047859,240252,1668508959,883366380,,238.69954542727177,181.1706767049314,0.0,0.0,0.0,0.06134255666234957,-0.9981167720973967,0.006512819314108025,-0.0008035687401054109,0.0,0.0,0.0,-0.00010848515968145492,"(0.0, 0.0, 0.0, 0.0, 0.0, 0.0, 0.0, 0.0, 0.0, 0.0, 0.0, 0.0, 0.0, 0.0, 0.0)"
2023/03/04/12:22:02.047907,240253,1668508959,893203532,,238.69962147274433,181.17066339785205,0.0,0.0,0.0,0.06134315020594141,-0.9981167356190414,0.006644291747794632,-0.0008197981765623301,0.0,0.0,0.0,-0.00011060608189976237,"(0.0, 0.0, 0.0, 0.0, 0.0, 0.0, 0.0, 0.0, 0.0, 0.0, 0.0, 0.0, 0.0, 0.0, 0.0)"
2023/03/04/12:22:02.047943,240254,1668508959,903133396,,238.69945267716778,181.17093455805934,0.0,0.0,0.0,0.06135248861559117,-0.9981161616468666,0.006765478514695825,-0.0008348791878572927,0.0,0.0,0.0,-0.00011253856208908684,"(0.0, 0.0, 0.0, 0.0, 0.0, 0.0, 0.0, 0.0, 0.0, 0.0, 0.0, 0.0, 0.0, 0.0, 0.0)"
2023/03/04/12:22:02.102222,240255,1668508959,913353600,,238.69953037817928,181.1709210127317,0.0,0.0,0.0,0.06135309683979827,-0.9981161242601816,0.006895249808956099,-0.000850901864203867,0.0,0.0,0.0,-0.00011460203319378228,"(0.0, 0.0, 0.0, 0.0, 0.0, 0.0, 0.0, 0.0, 0.0, 0.0, 0.0, 0.0, 0.0, 0.0, 0.0)"
2023/03/04/12:22:02.102268,240256,1668508959,923387628,,238.69937045275464,181.17118098112195,0.0,0.0,0.0,0.06135939515506614,-0.9981157370897448,0.007017469519431466,-0.0008660741856145036,0.0,0.0,0.0,-0.0001165360206904516,"(0.0, 0.0, 0.0, 0.0, 0.0, 0.0, 0.0, 0.0, 0.0, 0.0, 0.0, 0.0, 0.0, 0.0, 0.0)"
2023/03/04/12:22:02.140466,240257,1668508959,933370506,,238.69942998967986,181.17117084647055,0.0,0.0,0.0,0.061359985483929715,-0.9981157007989665,0.007076905943991312,-0.0008734181423105989,0.0,0.0,0.0,-0.00011744030664297944,"(0.0, 0.0, 0.0, 0.0, 0.0, 0.0, 0.0, 0.0, 0.0, 0.0, 0.0, 0.0, 0.0, 0.0, 0.0)"
2023/03/04/12:22:02.140491,240258,1668508959,943200645,,238.69892585484718,181.1714851715719,0.0,0.0,0.0,0.061363576578923204,-0.9981154800269569,0.006301923298004629,-0.0007778173101201256,0.0,0.0,0.0,-0.00010506700705723413,"(0.0, 0.0, 0.0, 0.0, 0.0, 0.0, 0.0, 0.0, 0.0, 0.0, 0.0, 0.0, 0.0, 0.0, 0.0)"
2023/03/04/12:22:02.140530,240259,1668508959,953374607,,238.69899274591938,181.17147365417608,0.0,0.0,0.0,0.061364136056420125,-0.9981154456304386,0.006408012469229725,-0.0007909187001905025,0.0,0.0,0.0,-0.00010678916278019064,"(0.0, 0.0, 0.0, 0.0, 0.0, 0.0, 0.0, 0.0, 0.0, 0.0, 0.0, 0.0, 0.0, 0.0, 0.0)"
2023/03/04/12:22:02.140553,240260,1668508959,963345664,,238.69882355598307,181.17172167253415,0.0,0.0,0.0,0.06136667990746765,-0.9981152892312263,0.006514464218143471,-0.0008040913815789808,0.0,0.0,0.0,-0.00010848247894691842,"(0.0, 0.0, 0.0, 0.0, 0.0, 0.0, 0.0, 0.0, 0.0, 0.0, 0.0, 0.0, 0.0, 0.0, 0.0)"
2023/03/04/12:22:02.140569,240261,1668508959,973145076,,238.69889701782236,181.17170890968978,0.0,0.0,0.0,0.061367274458642956,-0.9981152526765221,0.0066541638803164,-0.0008213427963262234,0.0,0.0,0.0,-0.00011072754239731186,"(0.0, 0.0, 0.0, 0.0, 0.0, 0.0, 0.0, 0.0, 0.0, 0.0, 0.0, 0.0, 0.0, 0.0, 0.0)"
2023/03/04/12:22:02.140602,240262,1668508959,983334807,,238.69871407848,181.17195411387527,0.0,0.0,0.0,0.06136862155192788,-0.9981151698520648,0.0067012455509408856,-0.0008271725879281724,0.0,0.0,0.0,-0.00011143747736477864,"(0.0, 0.0, 0.0, 0.0, 0.0, 0.0, 0.0, 0.0, 0.0, 0.0, 0.0, 0.0, 0.0, 0.0, 0.0)"
2023/03/04/12:22:02.140625,240263,1668508959,993377331,,238.69878993436458,181.17194109919248,0.0,0.0,0.0,0.06136921444736513,-0.998115133398003,0.0068062082738075125,-0.0008401369388384086,0.0,0.0,0.0,-0.00011310006296315024,"(0.0, 0.0, 0.0, 0.0, 0.0, 0.0, 0.0, 0.0, 0.0, 0.0, 0.0, 0.0, 0.0, 0.0, 0.0)"
2023/03/04/12:22:02.140656,240264,1668508960,3119663,,238.69863114376864,181.17214706554392,0.0,0.0,0.0,0.06135626639109078,-0.9981159294263094,0.006940762660855338,-0.0008565630877783493,0.0,0.0,0.0,-0.00011524634457467278,"(0.0, 0.0, 0.0, 0.0, 0.0, 0.0, 0.0, 0.0, 0.0, 0.0, 0.0, 0.0, 0.0, 0.0, 0.0)"
2023/03/04/12:22:02.185965,240265,1668508960,13352485,,238.6987155861403,181.17213244678192,0.0,0.0,0.0,0.06135689806423784,-0.9981158905958439,0.007083765461640514,-0.0008742202396308566,0.0,0.0,0.0,-0.00011752061620604723,"(0.0, 0.0, 0.0, 0.0, 0.0, 0.0, 0.0, 0.0, 0.0, 0.0, 0.0, 0.0, 0.0, 0.0, 0.0)"
2023/03/04/12:22:02.186000,240266,1668508960,23344059,,238.6982151364676,181.17240485615855,0.0,0.0,0.0,0.061346521971388485,-0.9981165283883511,0.006314829909914379,-0.0007791912266645707,0.0,0.0,0.0,-0.00010523936814389243,"(0.0, 0.0, 0.0, 0.0, 0.0, 0.0, 0.0, 0.0, 0.0, 0.0, 0.0, 0.0, 0.0, 0.0, 0.0)"
2023/03/04/12:22:02.186036,240267,1668508960,33368250,,238.69826515281235,181.17239622517985,0.0,0.0,0.0,0.061347058257308865,-0.9981164954268487,0.006385367862370987,-0.0007879019195274919,0.0,0.0,0.0,-0.0001063906052228206,"(0.0, 0.0, 0.0, 0.0, 0.0, 0.0, 0.0, 0.0, 0.0, 0.0, 0.0, 0.0, 0.0, 0.0, 0.0)"
2023/03/04/12:22:02.186073,240268,1668508960,43174504,,238.69810366190273,181.17261071006456,0.0,0.0,0.0,0.061339485154283904,-0.9981169608623066,0.006507664524420666,-0.0008028920668199131,0.0,0.0,0.0,-0.0001083712994724976,"(0.0, 0.0, 0.0, 0.0, 0.0, 0.0, 0.0, 0.0, 0.0, 0.0, 0.0, 0.0, 0.0, 0.0, 0.0)"
2023/03/04/12:22:02.217278,240269,1668508960,53386536,,238.6981835378317,181.17259673591832,0.0,0.0,0.0,0.0613400896922415,-0.9981169237101172,0.006657389910378691,-0.0008213728296029779,0.0,0.0,0.0,-0.00011078855077273727,"(0.0, 0.0, 0.0, 0.0, 0.0, 0.0, 0.0, 0.0, 0.0, 0.0, 0.0, 0.0, 0.0, 0.0, 0.0)"
2023/03/04/12:22:02.217347,240270,1668508960,63348276,,238.69803495088533,181.17281050203047,0.0,0.0,0.0,0.06133415495541374,-0.9981172884164993,0.006808700166340868,-0.0008399589262317091,0.0,0.0,0.0,-0.00011322868773452576,"(0.0, 0.0, 0.0, 0.0, 0.0, 0.0, 0.0, 0.0, 0.0, 0.0, 0.0, 0.0, 0.0, 0.0, 0.0)"
2023/03/04/12:22:02.217371,240271,1668508960,73223871,,238.69811582237384,181.1727964707224,0.0,0.0,0.0,0.061334779175500745,-0.9981172500580744,0.0069553741438458236,-0.0008580622718202161,0.0,0.0,0.0,-0.00011557645019215351,"(0.0, 0.0, 0.0, 0.0, 0.0, 0.0, 0.0, 0.0, 0.0, 0.0, 0.0, 0.0, 0.0, 0.0, 0.0)"
2023/03/04/12:22:02.217450,240272,1668508960,83325971,,238.69802487072428,181.17301715929523,0.0,0.0,0.0,0.06133124036384302,-0.9981174675134348,0.007051125660052928,-0.0008698240700012516,0.0,0.0,0.0,-0.00011710251323153669,"(0.0, 0.0, 0.0, 0.0, 0.0, 0.0, 0.0, 0.0, 0.0, 0.0, 0.0, 0.0, 0.0, 0.0, 0.0)"
2023/03/04/12:22:02.217460,240273,1668508960,93366014,,238.6981099238483,181.17300232727962,0.0,0.0,0.0,0.06133188901305411,-0.9981174276557295,0.007214710694104992,-0.0008900133750286025,0.0,0.0,0.0,-0.00011974324122543424,"(0.0, 0.0, 0.0, 0.0, 0.0, 0.0, 0.0, 0.0, 0.0, 0.0, 0.0, 0.0, 0.0, 0.0, 0.0)"
2023/03/04/12:22:02.217529,240274,1668508960,103340697,,238.69768680923445,181.1732819691955,0.0,0.0,0.0,0.06132833655009414,-0.9981176459395948,0.006406026468449714,-0.0007902070479343682,0.0,0.0,0.0,-0.0001067989556856418,"(0.0, 0.0, 0.0, 0.0, 0.0, 0.0, 0.0, 0.0, 0.0, 0.0, 0.0, 0.0, 0.0, 0.0, 0.0)"
2023/03/04/12:22:02.259508,240275,1668508960,113368379,,238.6977590270272,181.17326946986634,0.0,0.0,0.0,0.06132891291123544,-0.9981176105254962,0.006526226313800843,-0.0008050417950376958,0.0,0.0,0.0,-0.00010875688845340704,"(0.0, 0.0, 0.0, 0.0, 0.0, 0.0, 0.0, 0.0, 0.0, 0.0, 0.0, 0.0, 0.0, 0.0, 0.0)"
2023/03/04/12:22:02.259539,240276,1668508960,123378733,,238.69768687007868,181.17348415480032,0.0,0.0,0.0,0.061326309126899306,-0.9981177705105104,0.006647810036911746,-0.0008200045273703593,0.0,0.0,0.0,-0.00011070159184683075,"(0.0, 0.0, 0.0, 0.0, 0.0, 0.0, 0.0, 0.0, 0.0, 0.0, 0.0, 0.0, 0.0, 0.0, 0.0)"
2023/03/04/12:22:02.259552,240277,1668508960,133204206,,238.6977439008788,181.17347437250675,0.0,0.0,0.0,0.06132687657596606,-0.9981177356451674,0.006725488768864469,-0.0008295939292553963,0.0,0.0,0.0,-0.00011192795516908121,"(0.0, 0.0, 0.0, 0.0, 0.0, 0.0, 0.0, 0.0, 0.0, 0.0, 0.0, 0.0, 0.0, 0.0, 0.0)"
2023/03/04/12:22:02.259650,240278,1668508960,143173372,,238.6976811938707,181.17368542232487,0.0,0.0,0.0,0.06132454954721707,-0.9981178786209728,0.006870560923699189,-0.0008474561613154425,0.0,0.0,0.0,-0.00011427643250052765,"(0.0, 0.0, 0.0, 0.0, 0.0, 0.0, 0.0, 0.0, 0.0, 0.0, 0.0, 0.0, 0.0, 0.0, 0.0)"
2023/03/04/12:22:02.301165,240279,1668508960,153387620,,238.69776667876167,181.17367057743618,0.0,0.0,0.0,0.061325182426537214,-0.9981178397365473,0.007020545746751787,-0.0008659652268153586,0.0,0.0,0.0,-0.00011667965190460186,"(0.0, 0.0, 0.0, 0.0, 0.0, 0.0, 0.0, 0.0, 0.0, 0.0, 0.0, 0.0, 0.0, 0.0, 0.0)"
2023/03/04/12:22:02.301212,240280,1668508960,163331558,,238.69769712404494,181.17388132585987,0.0,0.0,0.0,0.061323012796389215,-0.9981179730380442,0.007119303551706964,-0.0008781153118547943,0.0,0.0,0.0,-0.00011820945145246082,"(0.0, 0.0, 0.0, 0.0, 0.0, 0.0, 0.0, 0.0, 0.0, 0.0, 0.0, 0.0, 0.0, 0.0, 0.0)"
2023/03/04/12:22:02.301248,240281,1668508960,173213151,,238.6977756060179,181.17386802270977,0.0,0.0,0.0,0.061323636961014116,-0.9981179346900214,0.007222209392366256,-0.0008908171833986795,0.0,0.0,0.0,-0.00011979891170845204,"(0.0, 0.0, 0.0, 0.0, 0.0, 0.0, 0.0, 0.0, 0.0, 0.0, 0.0, 0.0, 0.0, 0.0, 0.0)"
2023/03/04/12:22:02.301291,240282,1668508960,183314759,,238.69734214202256,181.17414236779206,0.0,0.0,0.0,0.06132107271593151,-0.9981180922320602,0.006376653942942446,-0.0007864896136441534,0.0,0.0,0.0,-0.00010627563313604035,"(0.0, 0.0, 0.0, 0.0, 0.0, 0.0, 0.0, 0.0, 0.0, 0.0, 0.0, 0.0, 0.0, 0.0, 0.0)"
2023/03/04/12:22:02.301313,240283,1668508960,193143461,,238.6974161077139,181.1741296328026,0.0,0.0,0.0,0.061321648050807816,-0.9981180568852228,0.006491995515647723,-0.0008007233167913853,0.0,0.0,0.0,-0.00010816718682773293,"(0.0, 0.0, 0.0, 0.0, 0.0, 0.0, 0.0, 0.0, 0.0, 0.0, 0.0, 0.0, 0.0, 0.0, 0.0)"
2023/03/04/12:22:02.301333,240284,1668508960,203048342,,238.69735238382296,181.17433526587428,0.0,0.0,0.0,0.06131980767301134,-0.9981181699513064,0.006654634316153785,-0.000820758287645146,0.0,0.0,0.0,-0.00011081287978600163,"(0.0, 0.0, 0.0, 0.0, 0.0, 0.0, 0.0, 0.0, 0.0, 0.0, 0.0, 0.0, 0.0, 0.0, 0.0)"
2023/03/04/12:22:02.352774,240285,1668508960,213050230,,238.69743665224075,181.17432047227007,0.0,0.0,0.0,0.061320428243570174,-0.9981181318261007,0.006814199992245353,-0.0008404471374778261,0.0,0.0,0.0,-0.00011339102076548505,"(0.0, 0.0, 0.0, 0.0, 0.0, 0.0, 0.0, 0.0, 0.0, 0.0, 0.0, 0.0, 0.0, 0.0, 0.0)"
2023/03/04/12:22:02.352828,240286,1668508960,223053129,,238.69738486294406,181.1745523182194,0.0,0.0,0.0,0.06133215412959246,-0.9981174113649275,0.006976246885937294,-0.0008606000218098218,0.0,0.0,0.0,-0.00011600641347983127,"(0.0, 0.0, 0.0, 0.0, 0.0, 0.0, 0.0, 0.0, 0.0, 0.0, 0.0, 0.0, 0.0, 0.0, 0.0)"
2023/03/04/12:22:02.352924,240287,1668508960,233051089,,238.69743446791384,181.17454414266717,0.0,0.0,0.0,0.061332737320308986,-0.9981173755289495,0.007042414340920724,-0.0008687708907315203,0.0,0.0,0.0,-0.00011702732625419127,"(0.0, 0.0, 0.0, 0.0, 0.0, 0.0, 0.0, 0.0, 0.0, 0.0, 0.0, 0.0, 0.0, 0.0, 0.0)"
2023/03/04/12:22:02.352951,240288,1668508960,243048887,,238.69737255044708,181.174797854342,0.0,0.0,0.0,0.06135428804133153,-0.9981160510376242,0.007160460146667206,-0.0008836472498695608,0.0,0.0,0.0,-0.00011890290368405382,"(0.0, 0.0, 0.0, 0.0, 0.0, 0.0, 0.0, 0.0, 0.0, 0.0, 0.0, 0.0, 0.0, 0.0, 0.0)"
2023/03/04/12:22:02.398916,240289,1668508960,253058463,,238.69744751845423,181.17478518806098,0.0,0.0,0.0,0.06135492098958614,-0.9981160121300338,0.00728003664807829,-0.0008984131399176566,0.0,0.0,0.0,-0.00012077585001306113,"(0.0, 0.0, 0.0, 0.0, 0.0, 0.0, 0.0, 0.0, 0.0, 0.0, 0.0, 0.0, 0.0, 0.0, 0.0)"
2023/03/04/12:22:02.398978,240290,1668508960,263179261,,238.69703522715693,181.17508723530514,0.0,0.0,0.0,0.06137030996168137,-0.998115066039586,0.006496577279962082,-0.0008019315413354773,0.0,0.0,0.0,-0.00010828080379989008,"(0.0, 0.0, 0.0, 0.0, 0.0, 0.0, 0.0, 0.0, 0.0, 0.0, 0.0, 0.0, 0.0, 0.0, 0.0)"
2023/03/04/12:22:02.399006,240291,1668508960,273349987,,238.69711548138363,181.1750732036221,0.0,0.0,0.0,0.061370903124903564,-0.9981150295680522,0.006630213917743019,-0.0008184355258727408,0.0,0.0,0.0,-0.00011046396204791368,"(0.0, 0.0, 0.0, 0.0, 0.0, 0.0, 0.0, 0.0, 0.0, 0.0, 0.0, 0.0, 0.0, 0.0, 0.0)"
2023/03/04/12:22:02.399063,240292,1668508960,283369879,,238.69704081824702,181.17529944378919,0.0,0.0,0.0,0.06138155509728884,-0.9981143745552603,0.006709974904385079,-0.0008284266467873676,0.0,0.0,0.0,-0.00011173261719917932,"(0.0, 0.0, 0.0, 0.0, 0.0, 0.0, 0.0, 0.0, 0.0, 0.0, 0.0, 0.0, 0.0, 0.0, 0.0)"
2023/03/04/12:22:02.399199,240293,1668508960,293114953,,238.69711558814842,181.1752865254321,0.0,0.0,0.0,0.061382151536022174,-0.9981143378755807,0.006820833590998619,-0.0008421217534608363,0.0,0.0,0.0,-0.00011349907728656081,"(0.0, 0.0, 0.0, 0.0, 0.0, 0.0, 0.0, 0.0, 0.0, 0.0, 0.0, 0.0, 0.0, 0.0, 0.0)"
2023/03/04/12:22:02.399336,240294,1668508960,303063867,,238.69705589113704,181.1754984869459,0.0,0.0,0.0,0.061388988069043984,-0.9981139174181767,0.00693246559483017,-0.0008560006097116725,0.0,0.0,0.0,-0.00011525959612084415,"(0.0, 0.0, 0.0, 0.0, 0.0, 0.0, 0.0, 0.0, 0.0, 0.0, 0.0, 0.0, 0.0, 0.0, 0.0)"
2023/03/04/12:22:02.447876,240295,1668508960,313202234,,238.69714688617321,181.1754825088155,0.0,0.0,0.0,0.06138962819845085,-0.9981138780468168,0.0070869356954016815,-0.0008750833555506651,0.0,0.0,0.0,-0.00011773254312023302,"(0.0, 0.0, 0.0, 0.0, 0.0, 0.0, 0.0, 0.0, 0.0, 0.0, 0.0, 0.0, 0.0, 0.0, 0.0)"
2023/03/04/12:22:02.447956,240296,1668508960,323142313,,238.69709940130915,181.17568500972496,0.0,0.0,0.0,0.061394374170344095,-0.9981135861314742,0.00726973100446144,-0.0008977248130666894,0.0,0.0,0.0,-0.00012068060519112833,"(0.0, 0.0, 0.0, 0.0, 0.0, 0.0, 0.0, 0.0, 0.0, 0.0, 0.0, 0.0, 0.0, 0.0, 0.0)"
2023/03/04/12:22:02.448016,240297,1668508960,333202434,,238.69716493000206,181.17567368172533,0.0,0.0,0.0,0.0613950088323487,-0.9981135470929526,0.007387746522545046,-0.0009123078561982909,0.0,0.0,0.0,-0.0001225701584755005,"(0.0, 0.0, 0.0, 0.0, 0.0, 0.0, 0.0, 0.0, 0.0, 0.0, 0.0, 0.0, 0.0, 0.0, 0.0)"
2023/03/04/12:22:02.486167,240298,1668508960,343136163,,238.69674851936242,181.17593696971485,0.0,0.0,0.0,0.06139753012583552,-0.9981133920023552,0.006531513982861516,-0.0008066057761550777,0.0,0.0,0.0,-0.00010886921662201737,"(0.0, 0.0, 0.0, 0.0, 0.0, 0.0, 0.0, 0.0, 0.0, 0.0, 0.0, 0.0, 0.0, 0.0, 0.0)"
2023/03/04/12:22:02.486269,240299,1668508960,353209030,,238.69682083912215,181.17592436573545,0.0,0.0,0.0,0.0613981234488585,-0.9981133555047537,0.0066669127870879015,-0.0008233348251355832,0.0,0.0,0.0,-0.00011108161888530359,"(0.0, 0.0, 0.0, 0.0, 0.0, 0.0, 0.0, 0.0, 0.0, 0.0, 0.0, 0.0, 0.0, 0.0, 0.0)"
2023/03/04/12:22:02.486358,240300,1668508960,363176380,,238.6967612845039,181.17611822233093,0.0,0.0,0.0,0.06140000994357705,-0.9981132394567906,0.006804840082752776,-0.0008403943636150048,0.0,0.0,0.0,-0.00011329947410874247,"(0.0, 0.0, 0.0, 0.0, 0.0, 0.0, 0.0, 0.0, 0.0, 0.0, 0.0, 0.0, 0.0, 0.0, 0.0)"
2023/03/04/12:22:02.486421,240301,1668508960,373333508,,238.69682933754473,181.1761068052212,0.0,0.0,0.0,0.061400596755961954,-0.9981132033582222,0.00689291608518717,-0.000851279934691245,0.0,0.0,0.0,-0.00011465850080188383,"(0.0, 0.0, 0.0, 0.0, 0.0, 0.0, 0.0, 0.0, 0.0, 0.0, 0.0, 0.0, 0.0, 0.0, 0.0)"
2023/03/04/12:22:02.486442,240302,1668508960,383130131,,238.69674580262688,181.17633151851894,0.0,0.0,0.0,0.061414971537310833,-0.998112318965692,0.006921994811036847,-0.0008550735999352689,0.0,0.0,0.0,-0.00011505807902225775,"(0.0, 0.0, 0.0, 0.0, 0.0, 0.0, 0.0, 0.0, 0.0, 0.0, 0.0, 0.0, 0.0, 0.0, 0.0)"
2023/03/04/12:22:02.486538,240303,1668508960,393206555,,238.69682087496278,181.17631854862861,0.0,0.0,0.0,0.06141558761252765,-0.9981122810577014,0.007046842034736053,-0.0008705048018591705,0.0,0.0,0.0,-0.00011704948259086097,"(0.0, 0.0, 0.0, 0.0, 0.0, 0.0, 0.0, 0.0, 0.0, 0.0, 0.0, 0.0, 0.0, 0.0, 0.0)"
2023/03/04/12:22:02.486562,240304,1668508960,403177677,,238.69677411377668,181.17665913707796,0.0,0.0,0.0,0.061428782127913584,-0.9981114690886391,0.007195500839112039,-0.000889061946480837,0.0,0.0,0.0,-0.0001194235988343401,"(0.0, 0.0, 0.0, 0.0, 0.0, 0.0, 0.0, 0.0, 0.0, 0.0, 0.0, 0.0, 0.0, 0.0, 0.0)"
2023/03/04/12:22:02.521348,240305,1668508960,413192635,,238.69685904177717,181.17664463317936,0.0,0.0,0.0,0.061429435555962,-0.9981114288731875,0.0073439259666338375,-0.0009074108260356695,0.0,0.0,0.0,-0.00012178102010985553,"(0.0, 0.0, 0.0, 0.0, 0.0, 0.0, 0.0, 0.0, 0.0, 0.0, 0.0, 0.0, 0.0, 0.0, 0.0)"
2023/03/04/12:22:02.521401,240306,1668508960,423386399,,238.69645151261855,181.1770371240449,0.0,0.0,0.0,0.06143789477605563,-0.9981109082088454,0.006547639586942984,-0.0008091348670528203,0.0,0.0,0.0,-0.00010908746585614433,"(0.0, 0.0, 0.0, 0.0, 0.0, 0.0, 0.0, 0.0, 0.0, 0.0, 0.0, 0.0, 0.0, 0.0, 0.0)"
2023/03/04/12:22:02.521494,240307,1668508960,433360214,,238.6965060447817,181.17702780124577,0.0,0.0,0.0,0.061438456868531215,-0.9981108736095473,0.006628174851532165,-0.0008190947185297842,0.0,0.0,0.0,-0.00011040386494696551,"(0.0, 0.0, 0.0, 0.0, 0.0, 0.0, 0.0, 0.0, 0.0, 0.0, 0.0, 0.0, 0.0, 0.0, 0.0)"
2023/03/04/12:22:02.521566,240308,1668508960,443068633,,238.69630007177173,181.1772041335987,0.0,0.0,0.0,0.06143885461106254,-0.998110849126529,0.006800831679989679,-0.0008404367582545466,0.0,0.0,0.0,-0.0001132342865284914,"(0.0, 0.0, 0.0, 0.0, 0.0, 0.0, 0.0, 0.0, 0.0, 0.0, 0.0, 0.0, 0.0, 0.0, 0.0)"
2023/03/04/12:22:02.531851,240309,1668508960,453379496,,238.6963797440893,181.17719041175175,0.0,0.0,0.0,0.061439479266331094,-0.9981108106755893,0.0069536090155941374,-0.000859325592857476,0.0,0.0,0.0,-0.00011569278699331886,"(0.0, 0.0, 0.0, 0.0, 0.0, 0.0, 0.0, 0.0, 0.0, 0.0, 0.0, 0.0, 0.0, 0.0, 0.0)"
2023/03/04/12:22:02.541928,240310,1668508960,463343117,,238.6961669673463,181.17730453159163,0.0,0.0,0.0,0.061412395476095435,-0.9981124774702937,0.007107786929149971,-0.0008779872397498414,0.0,0.0,0.0,-0.00011817143524072844,"(0.0, 0.0, 0.0, 0.0, 0.0, 0.0, 0.0, 0.0, 0.0, 0.0, 0.0, 0.0, 0.0, 0.0, 0.0)"
2023/03/04/12:22:02.566464,240311,1668508960,473214592,,238.69624295653279,181.1772915900235,0.0,0.0,0.0,0.06141302202046996,-0.9981124389197408,0.0072240471696055865,-0.0008923574588158634,0.0,0.0,0.0,-0.00011999393238922255,"(0.0, 0.0, 0.0, 0.0, 0.0, 0.0, 0.0, 0.0, 0.0, 0.0, 0.0, 0.0, 0.0, 0.0, 0.0)"
2023/03/04/12:22:02.566502,240312,1668508960,483176254,,238.69600513866294,181.17742546989118,0.0,0.0,0.0,0.06139293829664483,-0.9981136744516149,0.0072850465545908965,-0.0008995948203160494,0.0,0.0,0.0,-0.00012092893078620965,"(0.0, 0.0, 0.0, 0.0, 0.0, 0.0, 0.0, 0.0, 0.0, 0.0, 0.0, 0.0, 0.0, 0.0, 0.0)"
2023/03/04/12:22:02.571864,240313,1668508960,493334552,,238.69608465850592,181.17741176940442,0.0,0.0,0.0,0.06139358521998564,-0.9981136346598198,0.007417807870595986,-0.0009159986291207572,0.0,0.0,0.0,-0.00012303879693365824,"(0.0, 0.0, 0.0, 0.0, 0.0, 0.0, 0.0, 0.0, 0.0, 0.0, 0.0, 0.0, 0.0, 0.0, 0.0)"
2023/03/04/12:22:02.581765,240314,1668508960,503346113,,238.69550595659618,181.17761787695528,0.0,0.0,0.0,0.061378108338848845,-0.9981145865163702,0.0065615428283251395,-0.0008100549236099604,0.0,0.0,0.0,-0.00010933151644395784,"(0.0, 0.0, 0.0, 0.0, 0.0, 0.0, 0.0, 0.0, 0.0, 0.0, 0.0, 0.0, 0.0, 0.0, 0.0)"
2023/03/04/12:22:02.607484,240315,1668508960,513344255,,238.6955647611207,181.17760819320503,0.0,0.0,0.0,0.061378668394736345,-0.9981145520761077,0.006636899899412997,-0.0008193656884757065,0.0,0.0,0.0,-0.0001105202967233055,"(0.0, 0.0, 0.0, 0.0, 0.0, 0.0, 0.0, 0.0, 0.0, 0.0, 0.0, 0.0, 0.0, 0.0, 0.0)"
2023/03/04/12:22:02.607511,240316,1668508960,523339887,,238.69534308918233,181.17772653627335,0.0,0.0,0.0,0.061354013677017954,-0.9981160679027867,0.006739780013912577,-0.0008317288297669927,0.0,0.0,0.0,-0.00011214558913461112,"(0.0, 0.0, 0.0, 0.0, 0.0, 0.0, 0.0, 0.0, 0.0, 0.0, 0.0, 0.0, 0.0, 0.0, 0.0)"
2023/03/04/12:22:02.611591,240317,1668508960,533214352,,238.69539982494157,181.17771690869466,0.0,0.0,0.0,0.061354582723157906,-0.9981160329234608,0.006805977066293327,-0.0008399058173046585,0.0,0.0,0.0,-0.00011317447829413341,"(0.0, 0.0, 0.0, 0.0, 0.0, 0.0, 0.0, 0.0, 0.0, 0.0, 0.0, 0.0, 0.0, 0.0, 0.0)"
2023/03/04/12:22:02.621491,240318,1668508960,543063314,,238.69519827912143,181.1778449496402,0.0,0.0,0.0,0.06133633721634378,-0.9981171543145038,0.006927914241446826,-0.0008546965893026954,0.0,0.0,0.0,-0.00011512815420138815,"(0.0, 0.0, 0.0, 0.0, 0.0, 0.0, 0.0, 0.0, 0.0, 0.0, 0.0, 0.0, 0.0, 0.0, 0.0)"
2023/03/04/12:22:02.631802,240319,1668508960,553375193,,238.6952915846599,181.17782864905573,0.0,0.0,0.0,0.06133699633907405,-0.9981171138098477,0.007119216406528266,-0.000878307077832642,0.0,0.0,0.0,-0.00011822600859955317,"(0.0, 0.0, 0.0, 0.0, 0.0, 0.0, 0.0, 0.0, 0.0, 0.0, 0.0, 0.0, 0.0, 0.0, 0.0)"
